[{"station_id": "1", "complex_id": "1", "gtfs_stop_id": "R01", "name": "Astoria-Ditmars Blvd", "lines": ["N", "W"], "borough": "Q", "division": "BMT", "structure": "Elevated", "ada": false, "lat": 40.775036, "lng": -73.912034}, {"station_id": "2", "complex_id": "2", "gtfs_stop_id": "R03", "name": "Astoria Blvd", "lines": ["N", "W"], "borough": "Q", "division": "BMT", "structure": "Elevated", "ada": true, "lat": 40.770258, "lng": -73.917843}, {"station_id": "3", "complex_id": "3", "gtfs_stop_id": "R04", "name": "30 Av", "lines": ["N", "W"], "borough": "Q", "division": "BMT", "structure": "Elevated", "ada": false, "lat": 40.766779, "lng": -73.921479}, {"station_id": "4", "complex_id": "4", "gtfs_stop_id": "R05", "name": "Broadway", "lines": ["N", "W"], "borough": "Q", "division": "BMT", "structure": "Elevated", "ada": false, "lat": 40.76182, "lng": -73.925508}, {"station_id": "5", "complex_id": "5", "gtfs_stop_id": "R06", "name": "36 Av", "lines": ["N", "W"], "borough": "Q", "division": "BMT", "structure": "Elevated", "ada": false, "lat": 40.756804, "lng": -73.929575}, {"station_id": "6", "complex_id": "6", "gtfs_stop_id": "R08", "name": "39 Av-Dutch Kills", "lines": ["N", "W"], "borough": "Q", "division": "BMT", "structure": "Elevated", "ada": false, "lat": 40.752882, "lng": -73.932755}, {"station_id": "7", "complex_id": "613", "gtfs_stop_id": "R11", "name": "Lexington Av/59 St", "lines": ["N", "R", "W"], "borough": "M", "division": "BMT", "structure": "Subway", "ada": false, "lat": 40.76266, "lng": -73.967258}, {"station_id": "8", "complex_id": "8", "gtfs_stop_id": "R13", "name": "5 Av/59 St", "lines": ["N", "R", "W"], "borough": "M", "division": "BMT", "structure": "Subway", "ada": false, "lat": 40.764811, "lng": -73.973347}, {"station_id": "9", "complex_id": "9", "gtfs_stop_id": "R14", "name": "57 St-7 Av", "lines": ["N", "Q", "R", "W"], "borough": "M", "division": "BMT", "structure": "Subway", "ada": true, "lat": 40.764664, "lng": -73.980658}, {"station_id": "10", "complex_id": "10", "gtfs_stop_id": "R15", "name": "49 St", "lines": ["N", "R", "W"], "borough": "M", "division": "BMT", "structure": "Subway", "ada": false, "lat": 40.759901, "lng": -73.984139}, {"station_id": "11", "complex_id": "611", "gtfs_stop_id": "R16", "name": "Times Sq-42 St", "lines": ["N", "Q", "R", "W"], "borough": "M", "division": "BMT", "structure": "Subway", "ada": true, "lat": 40.754672, "lng": -73.986754}, {"station_id": "12", "complex_id": "607", "gtfs_stop_id": "R17", "name": "34 St-Herald Sq", "lines": ["N", "Q", "R", "W"], "borough": "M", "division": "BMT", "structure": "Subway", "ada": true, "lat": 40.749567, "lng": -73.98795}, {"station_id": "13", "complex_id": "13", "gtfs_stop_id": "R18", "name": "28 St", "lines": ["R", "W"], "borough": "M", "division": "BMT", "structure": "Subway", "ada": false, "lat": 40.745494, "lng": -73.988691}, {"station_id": "14", "complex_id": "14", "gtfs_stop_id": "R19", "name": "23 St", "lines": ["R", "W"], "borough": "M", "division": "BMT", "structure": "Subway", "ada": false, "lat": 40.741303, "lng": -73.989344}, {"station_id": "15", "complex_id": "602", "gtfs_stop_id": "R20", "name": "14 St-Union Sq", "lines": ["N", "Q", "R", "W"], "borough": "M", "division": "BMT", "structure": "Subway", "ada": true, "lat": 40.735736, "lng": -73.990568}, {"station_id": "16", "complex_id": "16", "gtfs_stop_id": "R21", "name": "8 St-NYU", "lines": ["R", "W"], "borough": "M", "division": "BMT", "structure": "Subway", "ada": false, "lat": 40.730328, "lng": -73.992629}, {"station_id": "17", "complex_id": "17", "gtfs_stop_id": "R22", "name": "Prince St", "lines": ["R", "W"], "borough": "M", "division": "BMT", "structure": "Subway", "ada": false, "lat": 40.724329, "lng": -73.997702}, {"station_id": "18", "complex_id": "623", "gtfs_stop_id": "R23", "name": "Canal St", "lines": ["R", "W"], "borough": "M", "division": "BMT", "structure": "Subway", "ada": false, "lat": 40.719527, "lng": -74.001775}, {"station_id": "19", "complex_id": "623", "gtfs_stop_id": "Q01", "name": "Canal St", "lines": ["N", "Q"], "borough": "M", "division": "BMT", "structure": "Subway", "ada": false, "lat": 40.718383, "lng": -74.00046}, {"station_id": "20", "complex_id": "20", "gtfs_stop_id": "R24", "name": "City Hall", "lines": ["R", "W"], "borough": "M", "division": "BMT", "structure": "Subway", "ada": false, "lat": 40.713282, "lng": -74.006978}, {"station_id": "21", "complex_id": "624", "gtfs_stop_id": "R25", "name": "Cortlandt St", "lines": ["R", "W"], "borough": "M", "division": "BMT", "structure": "Subway", "ada": true, "lat": 40.710668, "lng": -74.011029}, {"station_id": "22", "complex_id": "22", "gtfs_stop_id": "R26", "name": "Rector St", "lines": ["R", "W"], "borough": "M", "division": "BMT", "structure": "Subway", "ada": false, "lat": 40.70722, "lng": -74.013342}, {"station_id": "23", "complex_id": "635", "gtfs_stop_id": "R27", "name": "Whitehall St-South Ferry", "lines": ["R", "W"], "borough": "M", "division": "BMT", "structure": "Subway", "ada": false, "lat": 40.703087, "lng": -74.012994}, {"station_id": "24", "complex_id": "620", "gtfs_stop_id": "R28", "name": "Court St", "lines": ["R"], "borough": "Bk", "division": "BMT", "structure": "Subway", "ada": false, "lat": 40.6941, "lng": -73.991777}, {"station_id": "25", "complex_id": "636", "gtfs_stop_id": "R29", "name": "Jay St-MetroTech", "lines": ["R"], "borough": "Bk", "division": "BMT", "structure": "Subway", "ada": true, "lat": 40.69218, "lng": -73.985942}, {"station_id": "26", "complex_id": "26", "gtfs_stop_id": "R30", "name": "DeKalb Av", "lines": ["B", "Q", "R"], "borough": "Bk", "division": "BMT", "structure": "Subway", "ada": true, "lat": 40.690635, "lng": -73.981824}, {"station_id": "27", "complex_id": "617", "gtfs_stop_id": "R31", "name": "Atlantic Av-Barclays Ctr", "lines": ["D", "N", "R"], "borough": "Bk", "division": "BMT", "structure": "Subway", "ada": true, "lat": 40.683666, "lng": -73.97881}, {"station_id": "28", "complex_id": "28", "gtfs_stop_id": "R32", "name": "Union St", "lines": ["R"], "borough": "Bk", "division": "BMT", "structure": "Subway", "ada": false, "lat": 40.677316, "lng": -73.98311}, {"station_id": "29", "complex_id": "608", "gtfs_stop_id": "R33", "name": "4 Av-9 St", "lines": ["R"], "borough": "Bk", "division": "BMT", "structure": "Subway", "ada": false, "lat": 40.670847, "lng": -73.988302}, {"station_id": "30", "complex_id": "30", "gtfs_stop_id": "R34", "name": "Prospect Av", "lines": ["R"], "borough": "Bk", "division": "BMT", "structure": "Subway", "ada": false, "lat": 40.665414, "lng": -73.992872}, {"station_id": "31", "complex_id": "31", "gtfs_stop_id": "R35", "name": "25 St", "lines": ["R"], "borough": "Bk", "division": "BMT", "structure": "Subway", "ada": false, "lat": 40.660397, "lng": -73.998091}, {"station_id": "32", "complex_id": "32", "gtfs_stop_id": "R36", "name": "36 St", "lines": ["D", "N", "R"], "borough": "Bk", "division": "BMT", "structure": "Subway", "ada": false, "lat": 40.655144, "lng": -74.003549}, {"station_id": "33", "complex_id": "33", "gtfs_stop_id": "R39", "name": "45 St", "lines": ["R"], "borough": "Bk", "division": "BMT", "structure": "Subway", "ada": false, "lat": 40.648939, "lng": -74.010006}, {"station_id": "34", "complex_id": "34", "gtfs_stop_id": "R40", "name": "53 St", "lines": ["R"], "borough": "Bk", "division": "BMT", "structure": "Subway", "ada": false, "lat": 40.645069, "lng": -74.014034}, {"station_id": "35", "complex_id": "35", "gtfs_stop_id": "R41", "name": "59 St", "lines": ["N", "R"], "borough": "Bk", "division": "BMT", "structure": "Subway", "ada": true, "lat": 40.641362, "lng": -74.017881}, {"station_id": "36", "complex_id": "36", "gtfs_stop_id": "R42", "name": "Bay Ridge Av", "lines": ["R"], "borough": "Bk", "division": "BMT", "structure": "Subway", "ada": false, "lat": 40.634967, "lng": -74.023377}, {"station_id": "37", "complex_id": "37", "gtfs_stop_id": "R43", "name": "77 St", "lines": ["R"], "borough": "Bk", "division": "BMT", "structure": "Subway", "ada": false, "lat": 40.629742, "lng": -74.02551}, {"station_id": "38", "complex_id": "38", "gtfs_stop_id": "R44", "name": "86 St", "lines": ["R"], "borough": "Bk", "division": "BMT", "structure": "Subway", "ada": true, "lat": 40.622687, "lng": -74.028398}, {"station_id": "39", "complex_id": "39", "gtfs_stop_id": "R45", "name": "Bay Ridge-95 St", "lines": ["R"], "borough": "Bk", "division": "BMT", "structure": "Subway", "ada": true, "lat": 40.616622, "lng": -74.030876}, {"station_id": "40", "complex_id": "617", "gtfs_stop_id": "D24", "name": "Atlantic Av-Barclays Ctr", "lines": ["B", "Q"], "borough": "Bk", "division": "BMT", "structure": "Subway", "ada": true, "lat": 40.68446, "lng": -73.97689}, {"station_id": "41", "complex_id": "41", "gtfs_stop_id": "D25", "name": "7 Av", "lines": ["B", "Q"], "borough": "Bk", "division": "BMT", "structure": "Subway", "ada": false, "lat": 40.67705, "lng": -73.972367}, {"station_id": "42", "complex_id": "42", "gtfs_stop_id": "D26", "name": "Prospect Park", "lines": ["B", "Q", "S"], "borough": "Bk", "division": "BMT", "structure": "Open Cut", "ada": true, "lat": 40.661614, "lng": -73.962246}, {"station_id": "43", "complex_id": "43", "gtfs_stop_id": "D27", "name": "Parkside Av", "lines": ["Q"], "borough": "Bk", "division": "BMT", "structure": "Open Cut", "ada": false, "lat": 40.655292, "lng": -73.961495}, {"station_id": "44", "complex_id": "44", "gtfs_stop_id": "D28", "name": "Church Av", "lines": ["B", "Q"], "borough": "Bk", "division": "BMT", "structure": "Open Cut", "ada": true, "lat": 40.650527, "lng": -73.962982}, {"station_id": "45", "complex_id": "45", "gtfs_stop_id": "D29", "name": "Beverley Rd", "lines": ["Q"], "borough": "Bk", "division": "BMT", "structure": "Open Cut", "ada": false, "lat": 40.644031, "lng": -73.964492}, {"station_id": "46", "complex_id": "46", "gtfs_stop_id": "D30", "name": "Cortelyou Rd", "lines": ["Q"], "borough": "Bk", "division": "BMT", "structure": "Open Cut", "ada": false, "lat": 40.640927, "lng": -73.963891}, {"station_id": "47", "complex_id": "47", "gtfs_stop_id": "D31", "name": "Newkirk Plaza", "lines": ["B", "Q"], "borough": "Bk", "division": "BMT", "structure": "Open Cut", "ada": false, "lat": 40.635082, "lng": -73.962793}, {"station_id": "48", "complex_id": "48", "gtfs_stop_id": "D32", "name": "Avenue H", "lines": ["Q"], "borough": "Bk", "division": "BMT", "structure": "Open Cut", "ada": true, "lat": 40.62927, "lng": -73.961639}, {"station_id": "49", "complex_id": "49", "gtfs_stop_id": "D33", "name": "Avenue J", "lines": ["Q"], "borough": "Bk", "division": "BMT", "structure": "Open Cut", "ada": false, "lat": 40.625039, "lng": -73.960803}, {"station_id": "50", "complex_id": "50", "gtfs_stop_id": "D34", "name": "Avenue M", "lines": ["Q"], "borough": "Bk", "division": "BMT", "structure": "Open Cut", "ada": false, "lat": 40.617618, "lng": -73.959399}, {"station_id": "51", "complex_id": "51", "gtfs_stop_id": "D35", "name": "Kings Hwy", "lines": ["B", "Q"], "borough": "Bk", "division": "BMT", "structure": "Open Cut", "ada": true, "lat": 40.60867, "lng": -73.957734}, {"station_id": "52", "complex_id": "52", "gtfs_stop_id": "D37", "name": "Avenue U", "lines": ["Q"], "borough": "Bk", "division": "BMT", "structure": "Open Cut", "ada": false, "lat": 40.5993, "lng": -73.955929}, {"station_id": "53", "complex_id": "53", "gtfs_stop_id": "D38", "name": "Neck Rd", "lines": ["Q"], "borough": "Bk", "division": "BMT", "structure": "Open Cut", "ada": false, "lat": 40.595246, "lng": -73.955161}, {"station_id": "54", "complex_id": "54", "gtfs_stop_id": "D39", "name": "Sheepshead Bay", "lines": ["B", "Q"], "borough": "Bk", "division": "BMT", "structure": "Open Cut", "ada": true, "lat": 40.586896, "lng": -73.954155}, {"station_id": "55", "complex_id": "55", "gtfs_stop_id": "D40", "name": "Brighton Beach", "lines": ["B", "Q"], "borough": "Bk", "division": "BMT", "structure": "Elevated", "ada": false, "lat": 40.577621, "lng": -73.961376}, {"station_id": "56", "complex_id": "56", "gtfs_stop_id": "D41", "name": "Ocean Pkwy", "lines": ["Q"], "borough": "Bk", "division": "BMT", "structure": "Elevated", "ada": false, "lat": 40.576312, "lng": -73.968501}, {"station_id": "57", "complex_id": "57", "gtfs_stop_id": "D42", "name": "W 8 St-NY Aquarium", "lines": ["F", "Q"], "borough": "Bk", "division": "BMT", "structure": "Elevated", "ada": false, "lat": 40.576127, "lng": -73.975939}, {"station_id": "58", "complex_id": "58", "gtfs_stop_id": "D43", "name": "Coney Island-Stillwell Av", "lines": ["D", "F", "N", "Q"], "borough": "Bk", "division": "BMT", "structure": "Viaduct", "ada": true, "lat": 40.577422, "lng": -73.981233}, {"station_id": "59", "complex_id": "59", "gtfs_stop_id": "B12", "name": "9 Av", "lines": ["D"], "borough": "Bk", "division": "BMT", "structure": "Open Cut", "ada": false, "lat": 40.646292, "lng": -73.994324}, {"station_id": "60", "complex_id": "60", "gtfs_stop_id": "B13", "name": "Fort Hamilton Pkwy", "lines": ["D"], "borough": "Bk", "division": "BMT", "structure": "Elevated", "ada": false, "lat": 40.640914, "lng": -73.994304}, {"station_id": "61", "complex_id": "61", "gtfs_stop_id": "B14", "name": "50 St", "lines": ["D"], "borough": "Bk", "division": "BMT", "structure": "Elevated", "ada": false, "lat": 40.63626, "lng": -73.994791}, {"station_id": "62", "complex_id": "62", "gtfs_stop_id": "B15", "name": "55 St", "lines": ["D"], "borough": "Bk", "division": "BMT", "structure": "Elevated", "ada": false, "lat": 40.631435, "lng": -73.995476}, {"station_id": "63", "complex_id": "615", "gtfs_stop_id": "B16", "name": "62 St", "lines": ["D"], "borough": "Bk", "division": "BMT", "structure": "Elevated", "ada": true, "lat": 40.626472, "lng": -73.996895}, {"station_id": "64", "complex_id": "64", "gtfs_stop_id": "B17", "name": "71 St", "lines": ["D"], "borough": "Bk", "division": "BMT", "structure": "Elevated", "ada": false, "lat": 40.619589, "lng": -73.998864}, {"station_id": "65", "complex_id": "65", "gtfs_stop_id": "B18", "name": "79 St", "lines": ["D"], "borough": "Bk", "division": "BMT", "structure": "Elevated", "ada": false, "lat": 40.613501, "lng": -74.00061}, {"station_id": "66", "complex_id": "66", "gtfs_stop_id": "B19", "name": "18 Av", "lines": ["D"], "borough": "Bk", "division": "BMT", "structure": "Elevated", "ada": false, "lat": 40.607954, "lng": -74.001736}, {"station_id": "67", "complex_id": "67", "gtfs_stop_id": "B20", "name": "20 Av", "lines": ["D"], "borough": "Bk", "division": "BMT", "structure": "Elevated", "ada": false, "lat": 40.604556, "lng": -73.998168}, {"station_id": "68", "complex_id": "68", "gtfs_stop_id": "B21", "name": "Bay Pkwy", "lines": ["D"], "borough": "Bk", "division": "BMT", "structure": "Elevated", "ada": true, "lat": 40.601875, "lng": -73.993728}, {"station_id": "69", "complex_id": "69", "gtfs_stop_id": "B22", "name": "25 Av", "lines": ["D"], "borough": "Bk", "division": "BMT", "structure": "Elevated", "ada": false, "lat": 40.597704, "lng": -73.986829}, {"station_id": "70", "complex_id": "70", "gtfs_stop_id": "B23", "name": "Bay 50 St", "lines": ["D"], "borough": "Bk", "division": "BMT", "structure": "Elevated", "ada": false, "lat": 40.588841, "lng": -73.983765}, {"station_id": "71", "complex_id": "71", "gtfs_stop_id": "N02", "name": "8 Av", "lines": ["N"], "borough": "Bk", "division": "BMT", "structure": "Open Cut", "ada": true, "lat": 40.635064, "lng": -74.011719}, {"station_id": "72", "complex_id": "72", "gtfs_stop_id": "N03", "name": "Fort Hamilton Pkwy", "lines": ["N"], "borough": "Bk", "division": "BMT", "structure": "Open Cut", "ada": false, "lat": 40.631386, "lng": -74.005351}, {"station_id": "73", "complex_id": "615", "gtfs_stop_id": "N04", "name": "New Utrecht Av", "lines": ["N"], "borough": "Bk", "division": "BMT", "structure": "Open Cut", "ada": true, "lat": 40.624842, "lng": -73.996353}, {"station_id": "74", "complex_id": "74", "gtfs_stop_id": "N05", "name": "18 Av", "lines": ["N"], "borough": "Bk", "division": "BMT", "structure": "Open Cut", "ada": false, "lat": 40.620671, "lng": -73.990414}, {"station_id": "75", "complex_id": "75", "gtfs_stop_id": "N06", "name": "20 Av", "lines": ["N"], "borough": "Bk", "division": "BMT", "structure": "Open Cut", "ada": false, "lat": 40.61741, "lng": -73.985026}, {"station_id": "76", "complex_id": "76", "gtfs_stop_id": "N07", "name": "Bay Pkwy", "lines": ["N"], "borough": "Bk", "division": "BMT", "structure": "Open Cut", "ada": false, "lat": 40.611815, "lng": -73.981848}, {"station_id": "77", "complex_id": "77", "gtfs_stop_id": "N08", "name": "Kings Hwy", "lines": ["N"], "borough": "Bk", "division": "BMT", "structure": "Open Cut", "ada": false, "lat": 40.603923, "lng": -73.980353}, {"station_id": "78", "complex_id": "78", "gtfs_stop_id": "N09", "name": "Avenue U", "lines": ["N"], "borough": "Bk", "division": "BMT", "structure": "Open Cut", "ada": false, "lat": 40.597473, "lng": -73.979137}, {"station_id": "79", "complex_id": "79", "gtfs_stop_id": "N10", "name": "86 St", "lines": ["N"], "borough": "Bk", "division": "BMT", "structure": "Open Cut", "ada": false, "lat": 40.592721, "lng": -73.97823}, {"station_id": "80", "complex_id": "80", "gtfs_stop_id": "J12", "name": "121 St", "lines": ["J", "Z"], "borough": "Q", "division": "BMT", "structure": "Elevated", "ada": false, "lat": 40.700492, "lng": -73.828294}, {"station_id": "81", "complex_id": "81", "gtfs_stop_id": "J13", "name": "111 St", "lines": ["J"], "borough": "Q", "division": "BMT", "structure": "Elevated", "ada": false, "lat": 40.697418, "lng": -73.836345}, {"station_id": "82", "complex_id": "82", "gtfs_stop_id": "J14", "name": "104 St", "lines": ["J", "Z"], "borough": "Q", "division": "BMT", "structure": "Elevated", "ada": false, "lat": 40.695178, "lng": -73.84433}, {"station_id": "83", "complex_id": "83", "gtfs_stop_id": "J15", "name": "Woodhaven Blvd", "lines": ["J", "Z"], "borough": "Q", "division": "BMT", "structure": "Elevated", "ada": true, "lat": 40.693879, "lng": -73.851576}, {"station_id": "84", "complex_id": "84", "gtfs_stop_id": "J16", "name": "85 St-Forest Pkwy", "lines": ["J"], "borough": "Q", "division": "BMT", "structure": "Elevated", "ada": false, "lat": 40.692435, "lng": -73.86001}, {"station_id": "85", "complex_id": "85", "gtfs_stop_id": "J17", "name": "75 St-Elderts Ln", "lines": ["J", "Z"], "borough": "Q", "division": "BMT", "structure": "Elevated", "ada": false, "lat": 40.691324, "lng": -73.867139}, {"station_id": "86", "complex_id": "86", "gtfs_stop_id": "J19", "name": "Cypress Hills", "lines": ["J"], "borough": "Bk", "division": "BMT", "structure": "Elevated", "ada": false, "lat": 40.689941, "lng": -73.87255}, {"station_id": "87", "complex_id": "87", "gtfs_stop_id": "J20", "name": "Crescent St", "lines": ["J", "Z"], "borough": "Bk", "division": "BMT", "structure": "Elevated", "ada": false, "lat": 40.683194, "lng": -73.873785}, {"station_id": "88", "complex_id": "88", "gtfs_stop_id": "J21", "name": "Norwood Av", "lines": ["J", "Z"], "borough": "Bk", "division": "BMT", "structure": "Elevated", "ada": false, "lat": 40.68141, "lng": -73.880039}, {"station_id": "89", "complex_id": "89", "gtfs_stop_id": "J22", "name": "Cleveland St", "lines": ["J"], "borough": "Bk", "division": "BMT", "structure": "Elevated", "ada": false, "lat": 40.679947, "lng": -73.884639}, {"station_id": "90", "complex_id": "90", "gtfs_stop_id": "J23", "name": "Van Siclen Av", "lines": ["J", "Z"], "borough": "Bk", "division": "BMT", "structure": "Elevated", "ada": false, "lat": 40.678024, "lng": -73.891688}, {"station_id": "91", "complex_id": "91", "gtfs_stop_id": "J24", "name": "Alabama Av", "lines": ["J", "Z"], "borough": "Bk", "division": "BMT", "structure": "Elevated", "ada": false, "lat": 40.676992, "lng": -73.898654}, {"station_id": "92", "complex_id": "621", "gtfs_stop_id": "J27", "name": "Broadway Junction", "lines": ["J", "Z"], "borough": "Bk", "division": "BMT", "structure": "Elevated", "ada": false, "lat": 40.679498, "lng": -73.904512}, {"station_id": "93", "complex_id": "93", "gtfs_stop_id": "J28", "name": "Chauncey St", "lines": ["J", "Z"], "borough": "Bk", "division": "BMT", "structure": "Elevated", "ada": false, "lat": 40.682893, "lng": -73.910456}, {"station_id": "94", "complex_id": "94", "gtfs_stop_id": "J29", "name": "Halsey St", "lines": ["J"], "borough": "Bk", "division": "BMT", "structure": "Elevated", "ada": false, "lat": 40.68637, "lng": -73.916559}, {"station_id": "95", "complex_id": "95", "gtfs_stop_id": "J30", "name": "Gates Av", "lines": ["J", "Z"], "borough": "Bk", "division": "BMT", "structure": "Elevated", "ada": false, "lat": 40.68963, "lng": -73.92227}, {"station_id": "96", "complex_id": "96", "gtfs_stop_id": "J31", "name": "Kosciuszko St", "lines": ["J"], "borough": "Bk", "division": "BMT", "structure": "Elevated", "ada": false, "lat": 40.693342, "lng": -73.928814}, {"station_id": "97", "complex_id": "97", "gtfs_stop_id": "M11", "name": "Myrtle Av", "lines": ["M", "J", "Z"], "borough": "Bk", "division": "BMT", "structure": "Elevated", "ada": false, "lat": 40.697207, "lng": -73.935657}, {"station_id": "98", "complex_id": "98", "gtfs_stop_id": "M12", "name": "Flushing Av", "lines": ["M", "J"], "borough": "Bk", "division": "BMT", "structure": "Elevated", "ada": true, "lat": 40.70026, "lng": -73.941126}, {"station_id": "99", "complex_id": "99", "gtfs_stop_id": "M13", "name": "Lorimer St", "lines": ["M", "J"], "borough": "Bk", "division": "BMT", "structure": "Elevated", "ada": false, "lat": 40.703869, "lng": -73.947408}, {"station_id": "100", "complex_id": "100", "gtfs_stop_id": "M14", "name": "Hewes St", "lines": ["M", "J"], "borough": "Bk", "division": "BMT", "structure": "Elevated", "ada": false, "lat": 40.70687, "lng": -73.953431}, {"station_id": "101", "complex_id": "101", "gtfs_stop_id": "M16", "name": "Marcy Av", "lines": ["M", "J", "Z"], "borough": "Bk", "division": "BMT", "structure": "Elevated", "ada": true, "lat": 40.708359, "lng": -73.957757}, {"station_id": "102", "complex_id": "625", "gtfs_stop_id": "M18", "name": "Delancey St-Essex St", "lines": ["M", "J", "Z"], "borough": "M", "division": "BMT", "structure": "Subway", "ada": false, "lat": 40.718315, "lng": -73.987437}, {"station_id": "103", "complex_id": "103", "gtfs_stop_id": "M19", "name": "Bowery", "lines": ["J", "Z"], "borough": "M", "division": "BMT", "structure": "Subway", "ada": false, "lat": 40.72028, "lng": -73.993915}, {"station_id": "104", "complex_id": "623", "gtfs_stop_id": "M20", "name": "Canal St", "lines": ["J", "Z"], "borough": "M", "division": "BMT", "structure": "Subway", "ada": false, "lat": 40.718092, "lng": -73.999892}, {"station_id": "105", "complex_id": "622", "gtfs_stop_id": "M21", "name": "Chambers St", "lines": ["J", "Z"], "borough": "M", "division": "BMT", "structure": "Subway", "ada": true, "lat": 40.713243, "lng": -74.003401}, {"station_id": "106", "complex_id": "628", "gtfs_stop_id": "M22", "name": "Fulton St", "lines": ["J", "Z"], "borough": "M", "division": "BMT", "structure": "Subway", "ada": true, "lat": 40.710374, "lng": -74.007582}, {"station_id": "107", "complex_id": "107", "gtfs_stop_id": "M23", "name": "Broad St", "lines": ["J", "Z"], "borough": "M", "division": "BMT", "structure": "Subway", "ada": false, "lat": 40.706476, "lng": -74.011056}, {"station_id": "108", "complex_id": "108", "gtfs_stop_id": "M01", "name": "Middle Village-Metropolitan Av", "lines": ["M"], "borough": "Q", "division": "BMT", "structure": "Elevated", "ada": true, "lat": 40.711396, "lng": -73.889601}, {"station_id": "109", "complex_id": "109", "gtfs_stop_id": "M04", "name": "Fresh Pond Rd", "lines": ["M"], "borough": "Q", "division": "BMT", "structure": "Elevated", "ada": false, "lat": 40.706186, "lng": -73.895877}, {"station_id": "110", "complex_id": "110", "gtfs_stop_id": "M05", "name": "Forest Av", "lines": ["M"], "borough": "Q", "division": "BMT", "structure": "Elevated", "ada": false, "lat": 40.704423, "lng": -73.903077}, {"station_id": "111", "complex_id": "111", "gtfs_stop_id": "M06", "name": "Seneca Av", "lines": ["M"], "borough": "Q", "division": "BMT", "structure": "Elevated", "ada": false, "lat": 40.702762, "lng": -73.90774}, {"station_id": "112", "complex_id": "630", "gtfs_stop_id": "M08", "name": "Myrtle-Wyckoff Avs", "lines": ["M"], "borough": "Bk", "division": "BMT", "structure": "Elevated", "ada": true, "lat": 40.69943, "lng": -73.912385}, {"station_id": "113", "complex_id": "113", "gtfs_stop_id": "M09", "name": "Knickerbocker Av", "lines": ["M"], "borough": "Bk", "division": "BMT", "structure": "Elevated", "ada": false, "lat": 40.698664, "lng": -73.919711}, {"station_id": "114", "complex_id": "114", "gtfs_stop_id": "M10", "name": "Central Av", "lines": ["M"], "borough": "Bk", "division": "BMT", "structure": "Elevated", "ada": false, "lat": 40.697857, "lng": -73.927397}, {"station_id": "115", "complex_id": "618", "gtfs_stop_id": "L01", "name": "8 Av", "lines": ["L"], "borough": "M", "division": "BMT", "structure": "Subway", "ada": true, "lat": 40.739777, "lng": -74.002578}, {"station_id": "116", "complex_id": "601", "gtfs_stop_id": "L02", "name": "6 Av", "lines": ["L"], "borough": "M", "division": "BMT", "structure": "Subway", "ada": true, "lat": 40.737335, "lng": -73.996786}, {"station_id": "117", "complex_id": "602", "gtfs_stop_id": "L03", "name": "14 St-Union Sq", "lines": ["L"], "borough": "M", "division": "BMT", "structure": "Subway", "ada": true, "lat": 40.734789, "lng": -73.99073}, {"station_id": "118", "complex_id": "118", "gtfs_stop_id": "L05", "name": "3 Av", "lines": ["L"], "borough": "M", "division": "BMT", "structure": "Subway", "ada": false, "lat": 40.732849, "lng": -73.986122}, {"station_id": "119", "complex_id": "119", "gtfs_stop_id": "L06", "name": "1 Av", "lines": ["L"], "borough": "M", "division": "BMT", "structure": "Subway", "ada": true, "lat": 40.730953, "lng": -73.981628}, {"station_id": "120", "complex_id": "120", "gtfs_stop_id": "L08", "name": "Bedford Av", "lines": ["L"], "borough": "Bk", "division": "BMT", "structure": "Subway", "ada": true, "lat": 40.717304, "lng": -73.956872}, {"station_id": "121", "complex_id": "629", "gtfs_stop_id": "L10", "name": "Lorimer St", "lines": ["L"], "borough": "Bk", "division": "BMT", "structure": "Subway", "ada": true, "lat": 40.714063, "lng": -73.950275}, {"station_id": "122", "complex_id": "122", "gtfs_stop_id": "L11", "name": "Graham Av", "lines": ["L"], "borough": "Bk", "division": "BMT", "structure": "Subway", "ada": false, "lat": 40.714565, "lng": -73.944053}, {"station_id": "123", "complex_id": "123", "gtfs_stop_id": "L12", "name": "Grand St", "lines": ["L"], "borough": "Bk", "division": "BMT", "structure": "Subway", "ada": true, "lat": 40.711926, "lng": -73.94067}, {"station_id": "124", "complex_id": "124", "gtfs_stop_id": "L13", "name": "Montrose Av", "lines": ["L"], "borough": "Bk", "division": "BMT", "structure": "Subway", "ada": false, "lat": 40.707739, "lng": -73.93985}, {"station_id": "125", "complex_id": "125", "gtfs_stop_id": "L14", "name": "Morgan Av", "lines": ["L"], "borough": "Bk", "division": "BMT", "structure": "Subway", "ada": false, "lat": 40.706152, "lng": -73.933147}, {"station_id": "126", "complex_id": "126", "gtfs_stop_id": "L15", "name": "Jefferson St", "lines": ["L"], "borough": "Bk", "division": "BMT", "structure": "Subway", "ada": false, "lat": 40.706607, "lng": -73.922913}, {"station_id": "127", "complex_id": "127", "gtfs_stop_id": "L16", "name": "DeKalb Av", "lines": ["L"], "borough": "Bk", "division": "BMT", "structure": "Subway", "ada": false, "lat": 40.703811, "lng": -73.918425}, {"station_id": "128", "complex_id": "630", "gtfs_stop_id": "L17", "name": "Myrtle-Wyckoff Avs", "lines": ["L"], "borough": "Bk", "division": "BMT", "structure": "Subway", "ada": true, "lat": 40.699814, "lng": -73.911586}, {"station_id": "129", "complex_id": "129", "gtfs_stop_id": "L19", "name": "Halsey St", "lines": ["L"], "borough": "Q", "division": "BMT", "structure": "Subway", "ada": false, "lat": 40.695602, "lng": -73.904084}, {"station_id": "130", "complex_id": "130", "gtfs_stop_id": "L20", "name": "Wilson Av", "lines": ["L"], "borough": "Bk", "division": "BMT", "structure": "Subway", "ada": false, "lat": 40.688764, "lng": -73.904046}, {"station_id": "131", "complex_id": "131", "gtfs_stop_id": "L21", "name": "Bushwick Av-Aberdeen St", "lines": ["L"], "borough": "Bk", "division": "BMT", "structure": "Subway", "ada": false, "lat": 40.682829, "lng": -73.905249}, {"station_id": "132", "complex_id": "621", "gtfs_stop_id": "L22", "name": "Broadway Junction", "lines": ["L"], "borough": "Bk", "division": "BMT", "structure": "Elevated", "ada": false, "lat": 40.678856, "lng": -73.90324}, {"station_id": "133", "complex_id": "133", "gtfs_stop_id": "L24", "name": "Atlantic Av", "lines": ["L"], "borough": "Bk", "division": "BMT", "structure": "Elevated", "ada": false, "lat": 40.675345, "lng": -73.903097}, {"station_id": "134", "complex_id": "134", "gtfs_stop_id": "L25", "name": "Sutter Av", "lines": ["L"], "borough": "Bk", "division": "BMT", "structure": "Elevated", "ada": false, "lat": 40.669367, "lng": -73.901975}, {"station_id": "135", "complex_id": "135", "gtfs_stop_id": "L26", "name": "Livonia Av", "lines": ["L"], "borough": "Bk", "division": "BMT", "structure": "Elevated", "ada": true, "lat": 40.664038, "lng": -73.900571}, {"station_id": "136", "complex_id": "136", "gtfs_stop_id": "L27", "name": "New Lots Av", "lines": ["L"], "borough": "Bk", "division": "BMT", "structure": "Elevated", "ada": false, "lat": 40.658733, "lng": -73.899232}, {"station_id": "137", "complex_id": "137", "gtfs_stop_id": "L28", "name": "East 105 St", "lines": ["L"], "borough": "Bk", "division": "BMT", "structure": "At Grade", "ada": false, "lat": 40.650573, "lng": -73.899485}, {"station_id": "138", "complex_id": "138", "gtfs_stop_id": "L29", "name": "Canarsie-Rockaway Pkwy", "lines": ["L"], "borough": "Bk", "division": "BMT", "structure": "At Grade", "ada": true, "lat": 40.646654, "lng": -73.90185}, {"station_id": "139", "complex_id": "627", "gtfs_stop_id": "S01", "name": "Franklin Av", "lines": ["S"], "borough": "Bk", "division": "BMT", "structure": "Elevated", "ada": true, "lat": 40.680596, "lng": -73.955827}, {"station_id": "141", "complex_id": "141", "gtfs_stop_id": "S03", "name": "Park Pl", "lines": ["S"], "borough": "Bk", "division": "BMT", "structure": "Open Cut", "ada": true, "lat": 40.674772, "lng": -73.957624}, {"station_id": "142", "complex_id": "626", "gtfs_stop_id": "S04", "name": "Botanic Garden", "lines": ["S"], "borough": "Bk", "division": "BMT", "structure": "Open Cut", "ada": false, "lat": 40.670343, "lng": -73.959245}, {"station_id": "143", "complex_id": "143", "gtfs_stop_id": "A02", "name": "Inwood-207 St", "lines": ["A"], "borough": "M", "division": "IND", "structure": "Subway", "ada": true, "lat": 40.868072, "lng": -73.919899}, {"station_id": "144", "complex_id": "144", "gtfs_stop_id": "A03", "name": "Dyckman St", "lines": ["A"], "borough": "M", "division": "IND", "structure": "Subway", "ada": false, "lat": 40.865491, "lng": -73.927271}, {"station_id": "145", "complex_id": "145", "gtfs_stop_id": "A05", "name": "190 St", "lines": ["A"], "borough": "M", "division": "IND", "structure": "Subway", "ada": false, "lat": 40.859022, "lng": -73.93418}, {"station_id": "146", "complex_id": "146", "gtfs_stop_id": "A06", "name": "181 St", "lines": ["A"], "borough": "M", "division": "IND", "structure": "Subway", "ada": true, "lat": 40.851695, "lng": -73.937969}, {"station_id": "147", "complex_id": "147", "gtfs_stop_id": "A07", "name": "175 St", "lines": ["A"], "borough": "M", "division": "IND", "structure": "Subway", "ada": true, "lat": 40.847391, "lng": -73.939704}, {"station_id": "148", "complex_id": "605", "gtfs_stop_id": "A09", "name": "168 St", "lines": ["A", "C"], "borough": "M", "division": "IND", "structure": "Subway", "ada": true, "lat": 40.840719, "lng": -73.939561}, {"station_id": "149", "complex_id": "149", "gtfs_stop_id": "A10", "name": "163 St-Amsterdam Av", "lines": ["C"], "borough": "M", "division": "IND", "structure": "Subway", "ada": false, "lat": 40.836013, "lng": -73.939892}, {"station_id": "150", "complex_id": "150", "gtfs_stop_id": "A11", "name": "155 St", "lines": ["C"], "borough": "M", "division": "IND", "structure": "Subway", "ada": false, "lat": 40.830518, "lng": -73.941514}, {"station_id": "151", "complex_id": "151", "gtfs_stop_id": "A12", "name": "145 St", "lines": ["A", "C"], "borough": "M", "division": "IND", "structure": "Subway", "ada": false, "lat": 40.824783, "lng": -73.944216}, {"station_id": "151", "complex_id": "151", "gtfs_stop_id": "D13", "name": "145 St", "lines": ["B", "D"], "borough": "M", "division": "IND", "structure": "Subway", "ada": false, "lat": 40.824783, "lng": -73.944216}, {"station_id": "152", "complex_id": "152", "gtfs_stop_id": "A14", "name": "135 St", "lines": ["C", "B"], "borough": "M", "division": "IND", "structure": "Subway", "ada": false, "lat": 40.817894, "lng": -73.947649}, {"station_id": "153", "complex_id": "153", "gtfs_stop_id": "A15", "name": "125 St", "lines": ["A", "C", "B", "D"], "borough": "M", "division": "IND", "structure": "Subway", "ada": true, "lat": 40.811109, "lng": -73.952343}, {"station_id": "154", "complex_id": "154", "gtfs_stop_id": "A16", "name": "116 St", "lines": ["C", "B"], "borough": "M", "division": "IND", "structure": "Subway", "ada": false, "lat": 40.805085, "lng": -73.954882}, {"station_id": "155", "complex_id": "155", "gtfs_stop_id": "A17", "name": "Cathedral Pkwy (110 St)", "lines": ["C", "B"], "borough": "M", "division": "IND", "structure": "Subway", "ada": false, "lat": 40.800603, "lng": -73.958161}, {"station_id": "156", "complex_id": "156", "gtfs_stop_id": "A18", "name": "103 St", "lines": ["C", "B"], "borough": "M", "division": "IND", "structure": "Subway", "ada": false, "lat": 40.796092, "lng": -73.961454}, {"station_id": "157", "complex_id": "157", "gtfs_stop_id": "A19", "name": "96 St", "lines": ["C", "B"], "borough": "M", "division": "IND", "structure": "Subway", "ada": false, "lat": 40.791642, "lng": -73.964696}, {"station_id": "158", "complex_id": "158", "gtfs_stop_id": "A20", "name": "86 St", "lines": ["C", "B"], "borough": "M", "division": "IND", "structure": "Subway", "ada": false, "lat": 40.785868, "lng": -73.968916}, {"station_id": "159", "complex_id": "159", "gtfs_stop_id": "A21", "name": "81 St-Museum of Natural History", "lines": ["C", "B"], "borough": "M", "division": "IND", "structure": "Subway", "ada": false, "lat": 40.781433, "lng": -73.972143}, {"station_id": "160", "complex_id": "160", "gtfs_stop_id": "A22", "name": "72 St", "lines": ["C", "B"], "borough": "M", "division": "IND", "structure": "Subway", "ada": false, "lat": 40.775594, "lng": -73.97641}, {"station_id": "161", "complex_id": "614", "gtfs_stop_id": "A24", "name": "59 St-Columbus Circle", "lines": ["A", "C", "B", "D"], "borough": "M", "division": "IND", "structure": "Subway", "ada": true, "lat": 40.768296, "lng": -73.981736}, {"station_id": "162", "complex_id": "162", "gtfs_stop_id": "A25", "name": "50 St", "lines": ["C", "E"], "borough": "M", "division": "IND", "structure": "Subway", "ada": false, "lat": 40.762456, "lng": -73.985984}, {"station_id": "163", "complex_id": "611", "gtfs_stop_id": "A27", "name": "42 St-Port Authority Bus Terminal", "lines": ["A", "C", "E"], "borough": "M", "division": "IND", "structure": "Subway", "ada": true, "lat": 40.757308, "lng": -73.989735}, {"station_id": "164", "complex_id": "164", "gtfs_stop_id": "A28", "name": "34 St-Penn Station", "lines": ["A", "C", "E"], "borough": "M", "division": "IND", "structure": "Subway", "ada": true, "lat": 40.752287, "lng": -73.993391}, {"station_id": "165", "complex_id": "165", "gtfs_stop_id": "A30", "name": "23 St", "lines": ["C", "E"], "borough": "M", "division": "IND", "structure": "Subway", "ada": false, "lat": 40.745906, "lng": -73.998041}, {"station_id": "166", "complex_id": "618", "gtfs_stop_id": "A31", "name": "14 St", "lines": ["A", "C", "E"], "borough": "M", "division": "IND", "structure": "Subway", "ada": true, "lat": 40.740893, "lng": -74.00169}, {"station_id": "167", "complex_id": "167", "gtfs_stop_id": "A32", "name": "W 4 St-Wash Sq", "lines": ["A", "C", "E"], "borough": "M", "division": "IND", "structure": "Subway", "ada": true, "lat": 40.732338, "lng": -74.000495}, {"station_id": "167", "complex_id": "167", "gtfs_stop_id": "D20", "name": "W 4 St-Wash Sq", "lines": ["B", "D", "F", "M"], "borough": "M", "division": "IND", "structure": "Subway", "ada": true, "lat": 40.732338, "lng": -74.000495}, {"station_id": "168", "complex_id": "168", "gtfs_stop_id": "A33", "name": "Spring St", "lines": ["C", "E"], "borough": "M", "division": "IND", "structure": "Subway", "ada": false, "lat": 40.726227, "lng": -74.003739}, {"station_id": "169", "complex_id": "169", "gtfs_stop_id": "A34", "name": "Canal St", "lines": ["A", "C", "E"], "borough": "M", "division": "IND", "structure": "Subway", "ada": false, "lat": 40.720824, "lng": -74.005229}, {"station_id": "170", "complex_id": "624", "gtfs_stop_id": "A36", "name": "Chambers St", "lines": ["A", "C"], "borough": "M", "division": "IND", "structure": "Subway", "ada": false, "lat": 40.714111, "lng": -74.008585}, {"station_id": "171", "complex_id": "624", "gtfs_stop_id": "E01", "name": "World Trade Center", "lines": ["E"], "borough": "M", "division": "IND", "structure": "Subway", "ada": true, "lat": 40.712582, "lng": -74.009781}, {"station_id": "172", "complex_id": "628", "gtfs_stop_id": "A38", "name": "Fulton St", "lines": ["A", "C"], "borough": "M", "division": "IND", "structure": "Subway", "ada": true, "lat": 40.710197, "lng": -74.007691}, {"station_id": "173", "complex_id": "173", "gtfs_stop_id": "A40", "name": "High St", "lines": ["A", "C"], "borough": "Bk", "division": "IND", "structure": "Subway", "ada": false, "lat": 40.699337, "lng": -73.990531}, {"station_id": "174", "complex_id": "636", "gtfs_stop_id": "A41", "name": "Jay St-MetroTech", "lines": ["A", "C", "F"], "borough": "Bk", "division": "IND", "structure": "Subway", "ada": true, "lat": 40.692338, "lng": -73.987342}, {"station_id": "175", "complex_id": "175", "gtfs_stop_id": "A42", "name": "Hoyt-Schermerhorn Sts", "lines": ["A", "C", "G"], "borough": "Bk", "division": "IND", "structure": "Subway", "ada": false, "lat": 40.688484, "lng": -73.985001}, {"station_id": "176", "complex_id": "176", "gtfs_stop_id": "A43", "name": "Lafayette Av", "lines": ["C"], "borough": "Bk", "division": "IND", "structure": "Subway", "ada": false, "lat": 40.686113, "lng": -73.973946}, {"station_id": "177", "complex_id": "177", "gtfs_stop_id": "A44", "name": "Clinton-Washington Avs", "lines": ["C"], "borough": "Bk", "division": "IND", "structure": "Subway", "ada": false, "lat": 40.683263, "lng": -73.965838}, {"station_id": "178", "complex_id": "627", "gtfs_stop_id": "A45", "name": "Franklin Av", "lines": ["C"], "borough": "Bk", "division": "IND", "structure": "Subway", "ada": true, "lat": 40.68138, "lng": -73.956848}, {"station_id": "179", "complex_id": "179", "gtfs_stop_id": "A46", "name": "Nostrand Av", "lines": ["A", "C"], "borough": "Bk", "division": "IND", "structure": "Subway", "ada": false, "lat": 40.680438, "lng": -73.950426}, {"station_id": "180", "complex_id": "180", "gtfs_stop_id": "A47", "name": "Kingston-Throop Avs", "lines": ["C"], "borough": "Bk", "division": "IND", "structure": "Subway", "ada": false, "lat": 40.679921, "lng": -73.940858}, {"station_id": "181", "complex_id": "181", "gtfs_stop_id": "A48", "name": "Utica Av", "lines": ["A", "C"], "borough": "Bk", "division": "IND", "structure": "Subway", "ada": true, "lat": 40.679364, "lng": -73.930729}, {"station_id": "182", "complex_id": "182", "gtfs_stop_id": "A49", "name": "Ralph Av", "lines": ["C"], "borough": "Bk", "division": "IND", "structure": "Subway", "ada": false, "lat": 40.678822, "lng": -73.920786}, {"station_id": "183", "complex_id": "183", "gtfs_stop_id": "A50", "name": "Rockaway Av", "lines": ["C"], "borough": "Bk", "division": "IND", "structure": "Subway", "ada": false, "lat": 40.67834, "lng": -73.911946}, {"station_id": "184", "complex_id": "621", "gtfs_stop_id": "A51", "name": "Broadway Junction", "lines": ["A", "C"], "borough": "Bk", "division": "IND", "structure": "Subway", "ada": false, "lat": 40.678334, "lng": -73.905316}, {"station_id": "185", "complex_id": "185", "gtfs_stop_id": "A52", "name": "Liberty Av", "lines": ["C"], "borough": "Bk", "division": "IND", "structure": "Subway", "ada": false, "lat": 40.674542, "lng": -73.896548}, {"station_id": "186", "complex_id": "186", "gtfs_stop_id": "A53", "name": "Van Siclen Av", "lines": ["C"], "borough": "Bk", "division": "IND", "structure": "Subway", "ada": false, "lat": 40.67271, "lng": -73.890358}, {"station_id": "187", "complex_id": "187", "gtfs_stop_id": "A54", "name": "Shepherd Av", "lines": ["C"], "borough": "Bk", "division": "IND", "structure": "Subway", "ada": false, "lat": 40.67413, "lng": -73.88075}, {"station_id": "188", "complex_id": "188", "gtfs_stop_id": "A55", "name": "Euclid Av", "lines": ["A", "C"], "borough": "Bk", "division": "IND", "structure": "Subway", "ada": true, "lat": 40.675377, "lng": -73.872106}, {"station_id": "189", "complex_id": "189", "gtfs_stop_id": "A57", "name": "Grant Av", "lines": ["A"], "borough": "Bk", "division": "IND", "structure": "Subway", "ada": false, "lat": 40.677044, "lng": -73.86505}, {"station_id": "190", "complex_id": "190", "gtfs_stop_id": "A59", "name": "80 St", "lines": ["A"], "borough": "Q", "division": "IND", "structure": "Elevated", "ada": false, "lat": 40.679371, "lng": -73.858992}, {"station_id": "191", "complex_id": "191", "gtfs_stop_id": "A60", "name": "88 St", "lines": ["A"], "borough": "Q", "division": "IND", "structure": "Elevated", "ada": false, "lat": 40.679843, "lng": -73.85147}, {"station_id": "192", "complex_id": "192", "gtfs_stop_id": "A61", "name": "Rockaway Blvd", "lines": ["A"], "borough": "Q", "division": "IND", "structure": "Elevated", "ada": false, "lat": 40.680429, "lng": -73.843853}, {"station_id": "193", "complex_id": "193", "gtfs_stop_id": "A63", "name": "104 St", "lines": ["A"], "borough": "Q", "division": "IND", "structure": "Elevated", "ada": false, "lat": 40.681711, "lng": -73.837683}, {"station_id": "194", "complex_id": "194", "gtfs_stop_id": "A64", "name": "111 St", "lines": ["A"], "borough": "Q", "division": "IND", "structure": "Elevated", "ada": false, "lat": 40.684331, "lng": -73.832163}, {"station_id": "195", "complex_id": "195", "gtfs_stop_id": "A65", "name": "Ozone Park-Lefferts Blvd", "lines": ["A"], "borough": "Q", "division": "IND", "structure": "Elevated", "ada": true, "lat": 40.685951, "lng": -73.825798}, {"station_id": "196", "complex_id": "196", "gtfs_stop_id": "H01", "name": "Aqueduct Racetrack", "lines": ["A"], "borough": "Q", "division": "IND", "structure": "At Grade", "ada": true, "lat": 40.672097, "lng": -73.835919}, {"station_id": "197", "complex_id": "197", "gtfs_stop_id": "H02", "name": "Aqueduct-N Conduit Av", "lines": ["A"], "borough": "Q", "division": "IND", "structure": "At Grade", "ada": false, "lat": 40.668234, "lng": -73.834058}, {"station_id": "198", "complex_id": "198", "gtfs_stop_id": "H03", "name": "Howard Beach-JFK Airport", "lines": ["A"], "borough": "Q", "division": "IND", "structure": "At Grade", "ada": true, "lat": 40.660476, "lng": -73.830301}, {"station_id": "199", "complex_id": "199", "gtfs_stop_id": "H04", "name": "Broad Channel", "lines": ["A", "S"], "borough": "Q", "division": "IND", "structure": "At Grade", "ada": false, "lat": 40.608382, "lng": -73.815925}, {"station_id": "200", "complex_id": "200", "gtfs_stop_id": "H12", "name": "Beach 90 St", "lines": ["A", "S"], "borough": "Q", "division": "IND", "structure": "Viaduct", "ada": false, "lat": 40.588034, "lng": -73.813641}, {"station_id": "201", "complex_id": "201", "gtfs_stop_id": "H13", "name": "Beach 98 St", "lines": ["A", "S"], "borough": "Q", "division": "IND", "structure": "Viaduct", "ada": false, "lat": 40.585307, "lng": -73.820558}, {"station_id": "202", "complex_id": "202", "gtfs_stop_id": "H14", "name": "Beach 105 St", "lines": ["A", "S"], "borough": "Q", "division": "IND", "structure": "Viaduct", "ada": false, "lat": 40.583209, "lng": -73.827559}, {"station_id": "203", "complex_id": "203", "gtfs_stop_id": "H15", "name": "Rockaway Park-Beach 116 St", "lines": ["A", "S"], "borough": "Q", "division": "IND", "structure": "At Grade", "ada": true, "lat": 40.580903, "lng": -73.835592}, {"station_id": "204", "complex_id": "204", "gtfs_stop_id": "H06", "name": "Beach 67 St", "lines": ["A"], "borough": "Q", "division": "IND", "structure": "Viaduct", "ada": true, "lat": 40.590927, "lng": -73.796924}, {"station_id": "205", "complex_id": "205", "gtfs_stop_id": "H07", "name": "Beach 60 St", "lines": ["A"], "borough": "Q", "division": "IND", "structure": "Viaduct", "ada": false, "lat": 40.592374, "lng": -73.788522}, {"station_id": "206", "complex_id": "206", "gtfs_stop_id": "H08", "name": "Beach 44 St", "lines": ["A"], "borough": "Q", "division": "IND", "structure": "Viaduct", "ada": false, "lat": 40.592943, "lng": -73.776013}, {"station_id": "207", "complex_id": "207", "gtfs_stop_id": "H09", "name": "Beach 36 St", "lines": ["A"], "borough": "Q", "division": "IND", "structure": "Viaduct", "ada": false, "lat": 40.595398, "lng": -73.768175}, {"station_id": "208", "complex_id": "208", "gtfs_stop_id": "H10", "name": "Beach 25 St", "lines": ["A"], "borough": "Q", "division": "IND", "structure": "Viaduct", "ada": false, "lat": 40.600066, "lng": -73.761353}, {"station_id": "209", "complex_id": "209", "gtfs_stop_id": "H11", "name": "Far Rockaway-Mott Av", "lines": ["A"], "borough": "Q", "division": "IND", "structure": "Viaduct", "ada": true, "lat": 40.603995, "lng": -73.755405}, {"station_id": "210", "complex_id": "210", "gtfs_stop_id": "D01", "name": "Norwood-205 St", "lines": ["D"], "borough": "Bx", "division": "IND", "structure": "Subway", "ada": false, "lat": 40.874811, "lng": -73.878855}, {"station_id": "211", "complex_id": "211", "gtfs_stop_id": "D03", "name": "Bedford Park Blvd", "lines": ["B", "D"], "borough": "Bx", "division": "IND", "structure": "Subway", "ada": true, "lat": 40.873244, "lng": -73.887138}, {"station_id": "212", "complex_id": "212", "gtfs_stop_id": "D04", "name": "Kingsbridge Rd", "lines": ["B", "D"], "borough": "Bx", "division": "IND", "structure": "Subway", "ada": true, "lat": 40.866978, "lng": -73.893509}, {"station_id": "213", "complex_id": "213", "gtfs_stop_id": "D05", "name": "Fordham Rd", "lines": ["B", "D"], "borough": "Bx", "division": "IND", "structure": "Subway", "ada": false, "lat": 40.861296, "lng": -73.897749}, {"station_id": "214", "complex_id": "214", "gtfs_stop_id": "D06", "name": "182-183 Sts", "lines": ["B", "D"], "borough": "Bx", "division": "IND", "structure": "Subway", "ada": false, "lat": 40.856093, "lng": -73.900741}, {"station_id": "215", "complex_id": "215", "gtfs_stop_id": "D07", "name": "Tremont Av", "lines": ["B", "D"], "borough": "Bx", "division": "IND", "structure": "Subway", "ada": true, "lat": 40.85041, "lng": -73.905227}, {"station_id": "216", "complex_id": "216", "gtfs_stop_id": "D08", "name": "174-175 Sts", "lines": ["B", "D"], "borough": "Bx", "division": "IND", "structure": "Subway", "ada": false, "lat": 40.8459, "lng": -73.910136}, {"station_id": "217", "complex_id": "217", "gtfs_stop_id": "D09", "name": "170 St", "lines": ["B", "D"], "borough": "Bx", "division": "IND", "structure": "Subway", "ada": false, "lat": 40.839306, "lng": -73.9134}, {"station_id": "218", "complex_id": "218", "gtfs_stop_id": "D10", "name": "167 St", "lines": ["B", "D"], "borough": "Bx", "division": "IND", "structure": "Subway", "ada": false, "lat": 40.833771, "lng": -73.91844}, {"station_id": "219", "complex_id": "604", "gtfs_stop_id": "D11", "name": "161 St-Yankee Stadium", "lines": ["B", "D"], "borough": "Bx", "division": "IND", "structure": "Subway", "ada": true, "lat": 40.827905, "lng": -73.925651}, {"station_id": "220", "complex_id": "220", "gtfs_stop_id": "D12", "name": "155 St", "lines": ["B", "D"], "borough": "M", "division": "IND", "structure": "Subway", "ada": false, "lat": 40.830135, "lng": -73.938209}, {"station_id": "221", "complex_id": "221", "gtfs_stop_id": "B04", "name": "21 St-Queensbridge", "lines": ["M"], "borough": "Q", "division": "IND", "structure": "Subway", "ada": true, "lat": 40.754203, "lng": -73.942836}, {"station_id": "222", "complex_id": "222", "gtfs_stop_id": "B06", "name": "Roosevelt Island", "lines": ["M"], "borough": "M", "division": "IND", "structure": "Subway", "ada": true, "lat": 40.759145, "lng": -73.95326}, {"station_id": "223", "complex_id": "223", "gtfs_stop_id": "B08", "name": "Lexington Av/63 St", "lines": ["M", "Q"], "borough": "M", "division": "IND", "structure": "Subway", "ada": true, "lat": 40.764629, "lng": -73.966113}, {"station_id": "224", "complex_id": "224", "gtfs_stop_id": "B10", "name": "57 St", "lines": ["M"], "borough": "M", "division": "IND", "structure": "Subway", "ada": false, "lat": 40.763972, "lng": -73.97745}, {"station_id": "225", "complex_id": "225", "gtfs_stop_id": "D15", "name": "47-50 Sts-Rockefeller Ctr", "lines": ["B", "D", "F", "M"], "borough": "M", "division": "IND", "structure": "Subway", "ada": true, "lat": 40.758663, "lng": -73.981329}, {"station_id": "226", "complex_id": "609", "gtfs_stop_id": "D16", "name": "42 St-Bryant Pk", "lines": ["B", "D", "F", "M"], "borough": "M", "division": "IND", "structure": "Subway", "ada": false, "lat": 40.754222, "lng": -73.984569}, {"station_id": "227", "complex_id": "607", "gtfs_stop_id": "D17", "name": "34 St-Herald Sq", "lines": ["B", "D", "F", "M"], "borough": "M", "division": "IND", "structure": "Subway", "ada": true, "lat": 40.749719, "lng": -73.987823}, {"station_id": "228", "complex_id": "228", "gtfs_stop_id": "D18", "name": "23 St", "lines": ["F", "M"], "borough": "M", "division": "IND", "structure": "Subway", "ada": false, "lat": 40.742878, "lng": -73.992821}, {"station_id": "229", "complex_id": "601", "gtfs_stop_id": "D19", "name": "14 St", "lines": ["F", "M"], "borough": "M", "division": "IND", "structure": "Subway", "ada": true, "lat": 40.738228, "lng": -73.996209}, {"station_id": "230", "complex_id": "619", "gtfs_stop_id": "D21", "name": "Broadway-Lafayette St", "lines": ["B", "D", "F", "M"], "borough": "M", "division": "IND", "structure": "Subway", "ada": true, "lat": 40.725297, "lng": -73.996204}, {"station_id": "231", "complex_id": "231", "gtfs_stop_id": "D22", "name": "Grand St", "lines": ["B", "D"], "borough": "M", "division": "IND", "structure": "Subway", "ada": false, "lat": 40.718267, "lng": -73.993753}, {"station_id": "232", "complex_id": "232", "gtfs_stop_id": "F14", "name": "2 Av", "lines": ["F"], "borough": "M", "division": "IND", "structure": "Subway", "ada": false, "lat": 40.723402, "lng": -73.989938}, {"station_id": "233", "complex_id": "625", "gtfs_stop_id": "F15", "name": "Delancey St-Essex St", "lines": ["F"], "borough": "M", "division": "IND", "structure": "Subway", "ada": false, "lat": 40.718611, "lng": -73.988114}, {"station_id": "234", "complex_id": "234", "gtfs_stop_id": "F16", "name": "East Broadway", "lines": ["F"], "borough": "M", "division": "IND", "structure": "Subway", "ada": false, "lat": 40.713715, "lng": -73.990173}, {"station_id": "235", "complex_id": "235", "gtfs_stop_id": "F18", "name": "York St", "lines": ["F"], "borough": "Bk", "division": "IND", "structure": "Subway", "ada": false, "lat": 40.701397, "lng": -73.986751}, {"station_id": "236", "complex_id": "236", "gtfs_stop_id": "F20", "name": "Bergen St", "lines": ["F", "G"], "borough": "Bk", "division": "IND", "structure": "Subway", "ada": false, "lat": 40.686145, "lng": -73.990862}, {"station_id": "237", "complex_id": "237", "gtfs_stop_id": "F21", "name": "Carroll St", "lines": ["F", "G"], "borough": "Bk", "division": "IND", "structure": "Subway", "ada": false, "lat": 40.680303, "lng": -73.995048}, {"station_id": "238", "complex_id": "238", "gtfs_stop_id": "F22", "name": "Smith-9 Sts", "lines": ["F", "G"], "borough": "Bk", "division": "IND", "structure": "Viaduct", "ada": false, "lat": 40.67358, "lng": -73.995959}, {"station_id": "239", "complex_id": "608", "gtfs_stop_id": "F23", "name": "4 Av-9 St", "lines": ["F", "G"], "borough": "Bk", "division": "IND", "structure": "Viaduct", "ada": false, "lat": 40.670272, "lng": -73.989779}, {"station_id": "240", "complex_id": "240", "gtfs_stop_id": "F24", "name": "7 Av", "lines": ["F", "G"], "borough": "Bk", "division": "IND", "structure": "Subway", "ada": true, "lat": 40.666271, "lng": -73.980305}, {"station_id": "241", "complex_id": "241", "gtfs_stop_id": "F25", "name": "15 St-Prospect Park", "lines": ["F", "G"], "borough": "Bk", "division": "IND", "structure": "Subway", "ada": false, "lat": 40.660365, "lng": -73.979493}, {"station_id": "242", "complex_id": "242", "gtfs_stop_id": "F26", "name": "Fort Hamilton Pkwy", "lines": ["F", "G"], "borough": "Bk", "division": "IND", "structure": "Subway", "ada": false, "lat": 40.650782, "lng": -73.975776}, {"station_id": "243", "complex_id": "243", "gtfs_stop_id": "F27", "name": "Church Av", "lines": ["F", "G"], "borough": "Bk", "division": "IND", "structure": "Subway", "ada": true, "lat": 40.644041, "lng": -73.979678}, {"station_id": "244", "complex_id": "244", "gtfs_stop_id": "F29", "name": "Ditmas Av", "lines": ["F"], "borough": "Bk", "division": "IND", "structure": "Elevated", "ada": false, "lat": 40.636119, "lng": -73.978172}, {"station_id": "245", "complex_id": "245", "gtfs_stop_id": "F30", "name": "18 Av", "lines": ["F"], "borough": "Bk", "division": "IND", "structure": "Elevated", "ada": false, "lat": 40.629755, "lng": -73.976971}, {"station_id": "246", "complex_id": "246", "gtfs_stop_id": "F31", "name": "Avenue I", "lines": ["F"], "borough": "Bk", "division": "IND", "structure": "Elevated", "ada": false, "lat": 40.625322, "lng": -73.976127}, {"station_id": "247", "complex_id": "247", "gtfs_stop_id": "F32", "name": "Bay Pkwy", "lines": ["F"], "borough": "Bk", "division": "IND", "structure": "Elevated", "ada": false, "lat": 40.620769, "lng": -73.975264}, {"station_id": "248", "complex_id": "248", "gtfs_stop_id": "F33", "name": "Avenue N", "lines": ["F"], "borough": "Bk", "division": "IND", "structure": "Elevated", "ada": false, "lat": 40.61514, "lng": -73.974197}, {"station_id": "249", "complex_id": "249", "gtfs_stop_id": "F34", "name": "Avenue P", "lines": ["F"], "borough": "Bk", "division": "IND", "structure": "Elevated", "ada": false, "lat": 40.608944, "lng": -73.973022}, {"station_id": "250", "complex_id": "250", "gtfs_stop_id": "F35", "name": "Kings Hwy", "lines": ["F"], "borough": "Bk", "division": "IND", "structure": "Elevated", "ada": false, "lat": 40.603217, "lng": -73.972361}, {"station_id": "251", "complex_id": "251", "gtfs_stop_id": "F36", "name": "Avenue U", "lines": ["F"], "borough": "Bk", "division": "IND", "structure": "Elevated", "ada": false, "lat": 40.596063, "lng": -73.973357}, {"station_id": "252", "complex_id": "252", "gtfs_stop_id": "F38", "name": "Avenue X", "lines": ["F"], "borough": "Bk", "division": "IND", "structure": "Elevated", "ada": false, "lat": 40.58962, "lng": -73.97425}, {"station_id": "253", "complex_id": "253", "gtfs_stop_id": "F39", "name": "Neptune Av", "lines": ["F"], "borough": "Bk", "division": "IND", "structure": "Elevated", "ada": false, "lat": 40.581011, "lng": -73.974574}, {"station_id": "254", "complex_id": "254", "gtfs_stop_id": "F01", "name": "Jamaica-179 St", "lines": ["F"], "borough": "Q", "division": "IND", "structure": "Subway", "ada": true, "lat": 40.712646, "lng": -73.783817}, {"station_id": "255", "complex_id": "255", "gtfs_stop_id": "F02", "name": "169 St", "lines": ["F"], "borough": "Q", "division": "IND", "structure": "Subway", "ada": false, "lat": 40.71047, "lng": -73.793604}, {"station_id": "256", "complex_id": "256", "gtfs_stop_id": "F03", "name": "Parsons Blvd", "lines": ["F"], "borough": "Q", "division": "IND", "structure": "Subway", "ada": false, "lat": 40.707564, "lng": -73.803326}, {"station_id": "257", "complex_id": "257", "gtfs_stop_id": "F04", "name": "Sutphin Blvd", "lines": ["F"], "borough": "Q", "division": "IND", "structure": "Subway", "ada": false, "lat": 40.70546, "lng": -73.810708}, {"station_id": "258", "complex_id": "258", "gtfs_stop_id": "F05", "name": "Briarwood", "lines": ["E", "F"], "borough": "Q", "division": "IND", "structure": "Subway", "ada": false, "lat": 40.709179, "lng": -73.820574}, {"station_id": "259", "complex_id": "259", "gtfs_stop_id": "F06", "name": "Kew Gardens-Union Tpke", "lines": ["E", "F"], "borough": "Q", "division": "IND", "structure": "Subway", "ada": true, "lat": 40.714441, "lng": -73.831008}, {"station_id": "260", "complex_id": "260", "gtfs_stop_id": "F07", "name": "75 Av", "lines": ["E", "F"], "borough": "Q", "division": "IND", "structure": "Subway", "ada": false, "lat": 40.718331, "lng": -73.837324}, {"station_id": "261", "complex_id": "261", "gtfs_stop_id": "G08", "name": "Forest Hills-71 Av", "lines": ["E", "F", "M", "R"], "borough": "Q", "division": "IND", "structure": "Subway", "ada": true, "lat": 40.721691, "lng": -73.844521}, {"station_id": "262", "complex_id": "262", "gtfs_stop_id": "G09", "name": "67 Av", "lines": ["M", "R"], "borough": "Q", "division": "IND", "structure": "Subway", "ada": false, "lat": 40.726523, "lng": -73.852719}, {"station_id": "263", "complex_id": "263", "gtfs_stop_id": "G10", "name": "63 Dr-Rego Park", "lines": ["M", "R"], "borough": "Q", "division": "IND", "structure": "Subway", "ada": false, "lat": 40.729846, "lng": -73.861604}, {"station_id": "264", "complex_id": "264", "gtfs_stop_id": "G11", "name": "Woodhaven Blvd", "lines": ["M", "R"], "borough": "Q", "division": "IND", "structure": "Subway", "ada": false, "lat": 40.733106, "lng": -73.869229}, {"station_id": "265", "complex_id": "265", "gtfs_stop_id": "G12", "name": "Grand Av-Newtown", "lines": ["M", "R"], "borough": "Q", "division": "IND", "structure": "Subway", "ada": false, "lat": 40.737015, "lng": -73.877223}, {"station_id": "266", "complex_id": "266", "gtfs_stop_id": "G13", "name": "Elmhurst Av", "lines": ["M", "R"], "borough": "Q", "division": "IND", "structure": "Subway", "ada": false, "lat": 40.742454, "lng": -73.882017}, {"station_id": "267", "complex_id": "616", "gtfs_stop_id": "G14", "name": "Jackson Hts-Roosevelt Av", "lines": ["E", "F", "M", "R"], "borough": "Q", "division": "IND", "structure": "Subway", "ada": true, "lat": 40.746644, "lng": -73.891338}, {"station_id": "268", "complex_id": "268", "gtfs_stop_id": "G15", "name": "65 St", "lines": ["M", "R"], "borough": "Q", "division": "IND", "structure": "Subway", "ada": false, "lat": 40.749669, "lng": -73.898453}, {"station_id": "269", "complex_id": "269", "gtfs_stop_id": "G16", "name": "Northern Blvd", "lines": ["M", "R"], "borough": "Q", "division": "IND", "structure": "Subway", "ada": true, "lat": 40.752885, "lng": -73.906006}, {"station_id": "270", "complex_id": "270", "gtfs_stop_id": "G18", "name": "46 St", "lines": ["M", "R"], "borough": "Q", "division": "IND", "structure": "Subway", "ada": false, "lat": 40.756312, "lng": -73.913333}, {"station_id": "271", "complex_id": "271", "gtfs_stop_id": "G19", "name": "Steinway St", "lines": ["M", "R"], "borough": "Q", "division": "IND", "structure": "Subway", "ada": false, "lat": 40.756879, "lng": -73.92074}, {"station_id": "272", "complex_id": "272", "gtfs_stop_id": "G20", "name": "36 St", "lines": ["M", "R"], "borough": "Q", "division": "IND", "structure": "Subway", "ada": false, "lat": 40.752039, "lng": -73.928781}, {"station_id": "273", "complex_id": "273", "gtfs_stop_id": "G21", "name": "Queens Plaza", "lines": ["E", "F", "R"], "borough": "Q", "division": "IND", "structure": "Subway", "ada": true, "lat": 40.748973, "lng": -73.937243}, {"station_id": "274", "complex_id": "606", "gtfs_stop_id": "F09", "name": "Court Sq-23 St", "lines": ["E", "F"], "borough": "Q", "division": "IND", "structure": "Subway", "ada": false, "lat": 40.747846, "lng": -73.946}, {"station_id": "275", "complex_id": "612", "gtfs_stop_id": "F11", "name": "Lexington Av/53 St", "lines": ["E", "F"], "borough": "M", "division": "IND", "structure": "Subway", "ada": true, "lat": 40.757552, "lng": -73.969055}, {"station_id": "276", "complex_id": "276", "gtfs_stop_id": "F12", "name": "5 Av/53 St", "lines": ["E", "F"], "borough": "M", "division": "IND", "structure": "Subway", "ada": false, "lat": 40.760167, "lng": -73.975224}, {"station_id": "277", "complex_id": "277", "gtfs_stop_id": "D14", "name": "7 Av", "lines": ["E", "B", "D"], "borough": "M", "division": "IND", "structure": "Subway", "ada": false, "lat": 40.762862, "lng": -73.981637}, {"station_id": "278", "complex_id": "278", "gtfs_stop_id": "G05", "name": "Jamaica Center-Parsons/Archer", "lines": ["E", "J", "Z"], "borough": "Q", "division": "IND", "structure": "Subway", "ada": true, "lat": 40.702147, "lng": -73.801109}, {"station_id": "279", "complex_id": "279", "gtfs_stop_id": "G06", "name": "Sutphin Blvd-Archer Av-JFK Airport", "lines": ["E", "J", "Z"], "borough": "Q", "division": "IND", "structure": "Subway", "ada": true, "lat": 40.700486, "lng": -73.807969}, {"station_id": "280", "complex_id": "280", "gtfs_stop_id": "G07", "name": "Jamaica-Van Wyck", "lines": ["E"], "borough": "Q", "division": "IND", "structure": "Subway", "ada": true, "lat": 40.702566, "lng": -73.816859}, {"station_id": "281", "complex_id": "606", "gtfs_stop_id": "G22", "name": "Court Sq", "lines": ["G"], "borough": "Q", "division": "IND", "structure": "Subway", "ada": true, "lat": 40.746554, "lng": -73.943832}, {"station_id": "282", "complex_id": "282", "gtfs_stop_id": "G24", "name": "21 St", "lines": ["G"], "borough": "Q", "division": "IND", "structure": "Subway", "ada": false, "lat": 40.744065, "lng": -73.949724}, {"station_id": "283", "complex_id": "283", "gtfs_stop_id": "G26", "name": "Greenpoint Av", "lines": ["G"], "borough": "Bk", "division": "IND", "structure": "Subway", "ada": true, "lat": 40.731352, "lng": -73.954449}, {"station_id": "284", "complex_id": "284", "gtfs_stop_id": "G28", "name": "Nassau Av", "lines": ["G"], "borough": "Bk", "division": "IND", "structure": "Subway", "ada": false, "lat": 40.724635, "lng": -73.951277}, {"station_id": "285", "complex_id": "629", "gtfs_stop_id": "G29", "name": "Metropolitan Av", "lines": ["G"], "borough": "Bk", "division": "IND", "structure": "Subway", "ada": true, "lat": 40.712792, "lng": -73.951418}, {"station_id": "286", "complex_id": "286", "gtfs_stop_id": "G30", "name": "Broadway", "lines": ["G"], "borough": "Bk", "division": "IND", "structure": "Subway", "ada": false, "lat": 40.706092, "lng": -73.950308}, {"station_id": "287", "complex_id": "287", "gtfs_stop_id": "G31", "name": "Flushing Av", "lines": ["G"], "borough": "Bk", "division": "IND", "structure": "Subway", "ada": false, "lat": 40.700377, "lng": -73.950234}, {"station_id": "288", "complex_id": "288", "gtfs_stop_id": "G32", "name": "Myrtle-Willoughby Avs", "lines": ["G"], "borough": "Bk", "division": "IND", "structure": "Subway", "ada": false, "lat": 40.694568, "lng": -73.949046}, {"station_id": "289", "complex_id": "289", "gtfs_stop_id": "G33", "name": "Bedford-Nostrand Avs", "lines": ["G"], "borough": "Bk", "division": "IND", "structure": "Subway", "ada": false, "lat": 40.689627, "lng": -73.953522}, {"station_id": "290", "complex_id": "290", "gtfs_stop_id": "G34", "name": "Classon Av", "lines": ["G"], "borough": "Bk", "division": "IND", "structure": "Subway", "ada": false, "lat": 40.688873, "lng": -73.96007}, {"station_id": "291", "complex_id": "291", "gtfs_stop_id": "G35", "name": "Clinton-Washington Avs", "lines": ["G"], "borough": "Bk", "division": "IND", "structure": "Subway", "ada": false, "lat": 40.688089, "lng": -73.966839}, {"station_id": "292", "complex_id": "292", "gtfs_stop_id": "G36", "name": "Fulton St", "lines": ["G"], "borough": "Bk", "division": "IND", "structure": "Subway", "ada": false, "lat": 40.687119, "lng": -73.975375}, {"station_id": "293", "complex_id": "293", "gtfs_stop_id": "101", "name": "Van Cortlandt Park-242 St", "lines": ["1"], "borough": "Bx", "division": "IRT", "structure": "Elevated", "ada": false, "lat": 40.889248, "lng": -73.898583}, {"station_id": "294", "complex_id": "294", "gtfs_stop_id": "103", "name": "238 St", "lines": ["1"], "borough": "Bx", "division": "IRT", "structure": "Elevated", "ada": false, "lat": 40.884667, "lng": -73.90087}, {"station_id": "295", "complex_id": "295", "gtfs_stop_id": "104", "name": "231 St", "lines": ["1"], "borough": "Bx", "division": "IRT", "structure": "Elevated", "ada": true, "lat": 40.878856, "lng": -73.904834}, {"station_id": "296", "complex_id": "296", "gtfs_stop_id": "106", "name": "Marble Hill-225 St", "lines": ["1"], "borough": "M", "division": "IRT", "structure": "Elevated", "ada": false, "lat": 40.874561, "lng": -73.909831}, {"station_id": "297", "complex_id": "297", "gtfs_stop_id": "107", "name": "215 St", "lines": ["1"], "borough": "M", "division": "IRT", "structure": "Elevated", "ada": false, "lat": 40.869444, "lng": -73.915279}, {"station_id": "298", "complex_id": "298", "gtfs_stop_id": "108", "name": "207 St", "lines": ["1"], "borough": "M", "division": "IRT", "structure": "Elevated", "ada": false, "lat": 40.864621, "lng": -73.918822}, {"station_id": "299", "complex_id": "299", "gtfs_stop_id": "109", "name": "Dyckman St", "lines": ["1"], "borough": "M", "division": "IRT", "structure": "Elevated", "ada": true, "lat": 40.860531, "lng": -73.925536}, {"station_id": "300", "complex_id": "300", "gtfs_stop_id": "110", "name": "191 St", "lines": ["1"], "borough": "M", "division": "IRT", "structure": "Subway", "ada": false, "lat": 40.855225, "lng": -73.929412}, {"station_id": "301", "complex_id": "301", "gtfs_stop_id": "111", "name": "181 St", "lines": ["1"], "borough": "M", "division": "IRT", "structure": "Subway", "ada": false, "lat": 40.849505, "lng": -73.933596}, {"station_id": "302", "complex_id": "605", "gtfs_stop_id": "112", "name": "168 St-Washington Hts", "lines": ["1"], "borough": "M", "division": "IRT", "structure": "Subway", "ada": false, "lat": 40.840556, "lng": -73.940133}, {"station_id": "303", "complex_id": "303", "gtfs_stop_id": "113", "name": "157 St", "lines": ["1"], "borough": "M", "division": "IRT", "structure": "Subway", "ada": false, "lat": 40.834041, "lng": -73.94489}, {"station_id": "304", "complex_id": "304", "gtfs_stop_id": "114", "name": "145 St", "lines": ["1"], "borough": "M", "division": "IRT", "structure": "Subway", "ada": false, "lat": 40.826551, "lng": -73.95036}, {"station_id": "305", "complex_id": "305", "gtfs_stop_id": "115", "name": "137 St-City College", "lines": ["1"], "borough": "M", "division": "IRT", "structure": "Subway", "ada": false, "lat": 40.822008, "lng": -73.953676}, {"station_id": "306", "complex_id": "306", "gtfs_stop_id": "116", "name": "125 St", "lines": ["1"], "borough": "M", "division": "IRT", "structure": "Elevated", "ada": false, "lat": 40.815581, "lng": -73.958372}, {"station_id": "307", "complex_id": "307", "gtfs_stop_id": "117", "name": "116 St-Columbia University", "lines": ["1"], "borough": "M", "division": "IRT", "structure": "Subway", "ada": false, "lat": 40.807722, "lng": -73.96411}, {"station_id": "308", "complex_id": "308", "gtfs_stop_id": "118", "name": "Cathedral Pkwy (110 St)", "lines": ["1"], "borough": "M", "division": "IRT", "structure": "Subway", "ada": false, "lat": 40.803967, "lng": -73.966847}, {"station_id": "309", "complex_id": "309", "gtfs_stop_id": "119", "name": "103 St", "lines": ["1"], "borough": "M", "division": "IRT", "structure": "Subway", "ada": false, "lat": 40.799446, "lng": -73.968379}, {"station_id": "310", "complex_id": "310", "gtfs_stop_id": "120", "name": "96 St", "lines": ["1", "2", "3"], "borough": "M", "division": "IRT", "structure": "Subway", "ada": true, "lat": 40.793919, "lng": -73.972323}, {"station_id": "311", "complex_id": "311", "gtfs_stop_id": "121", "name": "86 St", "lines": ["1"], "borough": "M", "division": "IRT", "structure": "Subway", "ada": false, "lat": 40.788644, "lng": -73.976218}, {"station_id": "312", "complex_id": "312", "gtfs_stop_id": "122", "name": "79 St", "lines": ["1"], "borough": "M", "division": "IRT", "structure": "Subway", "ada": false, "lat": 40.783934, "lng": -73.979917}, {"station_id": "313", "complex_id": "313", "gtfs_stop_id": "123", "name": "72 St", "lines": ["1", "2", "3"], "borough": "M", "division": "IRT", "structure": "Subway", "ada": true, "lat": 40.778453, "lng": -73.98197}, {"station_id": "314", "complex_id": "314", "gtfs_stop_id": "124", "name": "66 St-Lincoln Center", "lines": ["1"], "borough": "M", "division": "IRT", "structure": "Subway", "ada": true, "lat": 40.77344, "lng": -73.982209}, {"station_id": "315", "complex_id": "614", "gtfs_stop_id": "125", "name": "59 St-Columbus Circle", "lines": ["1"], "borough": "M", "division": "IRT", "structure": "Subway", "ada": true, "lat": 40.768247, "lng": -73.981929}, {"station_id": "316", "complex_id": "316", "gtfs_stop_id": "126", "name": "50 St", "lines": ["1"], "borough": "M", "division": "IRT", "structure": "Subway", "ada": false, "lat": 40.761728, "lng": -73.983849}, {"station_id": "317", "complex_id": "611", "gtfs_stop_id": "127", "name": "Times Sq-42 St", "lines": ["1", "2", "3"], "borough": "M", "division": "IRT", "structure": "Subway", "ada": true, "lat": 40.75529, "lng": -73.987495}, {"station_id": "318", "complex_id": "318", "gtfs_stop_id": "128", "name": "34 St-Penn Station", "lines": ["1", "2", "3"], "borough": "M", "division": "IRT", "structure": "Subway", "ada": true, "lat": 40.750373, "lng": -73.991057}, {"station_id": "319", "complex_id": "319", "gtfs_stop_id": "129", "name": "28 St", "lines": ["1"], "borough": "M", "division": "IRT", "structure": "Subway", "ada": false, "lat": 40.747215, "lng": -73.993365}, {"station_id": "320", "complex_id": "320", "gtfs_stop_id": "130", "name": "23 St", "lines": ["1"], "borough": "M", "division": "IRT", "structure": "Subway", "ada": false, "lat": 40.744081, "lng": -73.995657}, {"station_id": "321", "complex_id": "321", "gtfs_stop_id": "131", "name": "18 St", "lines": ["1"], "borough": "M", "division": "IRT", "structure": "Subway", "ada": false, "lat": 40.74104, "lng": -73.997871}, {"station_id": "322", "complex_id": "601", "gtfs_stop_id": "132", "name": "14 St", "lines": ["1", "2", "3"], "borough": "M", "division": "IRT", "structure": "Subway", "ada": true, "lat": 40.737826, "lng": -74.000201}, {"station_id": "323", "complex_id": "323", "gtfs_stop_id": "133", "name": "Christopher St-Stonewall", "lines": ["1"], "borough": "M", "division": "IRT", "structure": "Subway", "ada": false, "lat": 40.733422, "lng": -74.002906}, {"station_id": "324", "complex_id": "324", "gtfs_stop_id": "134", "name": "Houston St", "lines": ["1"], "borough": "M", "division": "IRT", "structure": "Subway", "ada": false, "lat": 40.728251, "lng": -74.005367}, {"station_id": "325", "complex_id": "325", "gtfs_stop_id": "135", "name": "Canal St", "lines": ["1"], "borough": "M", "division": "IRT", "structure": "Subway", "ada": false, "lat": 40.722854, "lng": -74.006277}, {"station_id": "326", "complex_id": "326", "gtfs_stop_id": "136", "name": "Franklin St", "lines": ["1"], "borough": "M", "division": "IRT", "structure": "Subway", "ada": false, "lat": 40.719318, "lng": -74.006886}, {"station_id": "327", "complex_id": "327", "gtfs_stop_id": "137", "name": "Chambers St", "lines": ["1", "2", "3"], "borough": "M", "division": "IRT", "structure": "Subway", "ada": true, "lat": 40.715478, "lng": -74.009266}, {"station_id": "328", "complex_id": "328", "gtfs_stop_id": "138", "name": "WTC Cortlandt", "lines": ["1"], "borough": "M", "division": "IRT", "structure": "Subway", "ada": true, "lat": 40.711835, "lng": -74.012188}, {"station_id": "329", "complex_id": "329", "gtfs_stop_id": "139", "name": "Rector St", "lines": ["1"], "borough": "M", "division": "IRT", "structure": "Subway", "ada": false, "lat": 40.707513, "lng": -74.013783}, {"station_id": "330", "complex_id": "635", "gtfs_stop_id": "142", "name": "South Ferry", "lines": ["1"], "borough": "M", "division": "IRT", "structure": "Subway", "ada": true, "lat": 40.702068, "lng": -74.013664}, {"station_id": "331", "complex_id": "624", "gtfs_stop_id": "228", "name": "Park Place", "lines": ["2", "3"], "borough": "M", "division": "IRT", "structure": "Subway", "ada": false, "lat": 40.713051, "lng": -74.008811}, {"station_id": "332", "complex_id": "628", "gtfs_stop_id": "229", "name": "Fulton St", "lines": ["2", "3"], "borough": "M", "division": "IRT", "structure": "Subway", "ada": true, "lat": 40.709416, "lng": -74.006571}, {"station_id": "333", "complex_id": "333", "gtfs_stop_id": "230", "name": "Wall St", "lines": ["2", "3"], "borough": "M", "division": "IRT", "structure": "Subway", "ada": false, "lat": 40.706821, "lng": -74.0091}, {"station_id": "334", "complex_id": "334", "gtfs_stop_id": "231", "name": "Clark St", "lines": ["2", "3"], "borough": "Bk", "division": "IRT", "structure": "Subway", "ada": false, "lat": 40.697466, "lng": -73.993086}, {"station_id": "335", "complex_id": "620", "gtfs_stop_id": "232", "name": "Borough Hall", "lines": ["2", "3"], "borough": "Bk", "division": "IRT", "structure": "Subway", "ada": true, "lat": 40.693219, "lng": -73.989998}, {"station_id": "336", "complex_id": "336", "gtfs_stop_id": "233", "name": "Hoyt St", "lines": ["2", "3"], "borough": "Bk", "division": "IRT", "structure": "Subway", "ada": false, "lat": 40.690545, "lng": -73.985065}, {"station_id": "337", "complex_id": "337", "gtfs_stop_id": "234", "name": "Nevins St", "lines": ["2", "3", "4", "5"], "borough": "Bk", "division": "IRT", "structure": "Subway", "ada": false, "lat": 40.688246, "lng": -73.980492}, {"station_id": "338", "complex_id": "617", "gtfs_stop_id": "235", "name": "Atlantic Av-Barclays Ctr", "lines": ["2", "3", "4", "5"], "borough": "Bk", "division": "IRT", "structure": "Subway", "ada": true, "lat": 40.684359, "lng": -73.977666}, {"station_id": "339", "complex_id": "339", "gtfs_stop_id": "236", "name": "Bergen St", "lines": ["2", "3"], "borough": "Bk", "division": "IRT", "structure": "Subway", "ada": false, "lat": 40.680829, "lng": -73.975098}, {"station_id": "340", "complex_id": "340", "gtfs_stop_id": "237", "name": "Grand Army Plaza", "lines": ["2", "3"], "borough": "Bk", "division": "IRT", "structure": "Subway", "ada": false, "lat": 40.675235, "lng": -73.971046}, {"station_id": "341", "complex_id": "341", "gtfs_stop_id": "238", "name": "Eastern Pkwy-Brooklyn Museum", "lines": ["2", "3"], "borough": "Bk", "division": "IRT", "structure": "Subway", "ada": true, "lat": 40.671987, "lng": -73.964375}, {"station_id": "342", "complex_id": "626", "gtfs_stop_id": "239", "name": "Franklin Av-Medgar Evers College", "lines": ["2", "3", "4", "5"], "borough": "Bk", "division": "IRT", "structure": "Subway", "ada": false, "lat": 40.670682, "lng": -73.958131}, {"station_id": "343", "complex_id": "343", "gtfs_stop_id": "248", "name": "Nostrand Av", "lines": ["3"], "borough": "Bk", "division": "IRT", "structure": "Subway", "ada": false, "lat": 40.669847, "lng": -73.950466}, {"station_id": "344", "complex_id": "344", "gtfs_stop_id": "249", "name": "Kingston Av", "lines": ["3"], "borough": "Bk", "division": "IRT", "structure": "Subway", "ada": false, "lat": 40.669399, "lng": -73.942161}, {"station_id": "345", "complex_id": "345", "gtfs_stop_id": "250", "name": "Crown Hts-Utica Av", "lines": ["3", "4"], "borough": "Bk", "division": "IRT", "structure": "Subway", "ada": true, "lat": 40.668897, "lng": -73.932942}, {"station_id": "346", "complex_id": "346", "gtfs_stop_id": "251", "name": "Sutter Av-Rutland Rd", "lines": ["3"], "borough": "Bk", "division": "IRT", "structure": "Elevated", "ada": false, "lat": 40.664717, "lng": -73.92261}, {"station_id": "347", "complex_id": "347", "gtfs_stop_id": "252", "name": "Saratoga Av", "lines": ["3"], "borough": "Bk", "division": "IRT", "structure": "Elevated", "ada": false, "lat": 40.661453, "lng": -73.916327}, {"station_id": "348", "complex_id": "348", "gtfs_stop_id": "253", "name": "Rockaway Av", "lines": ["3"], "borough": "Bk", "division": "IRT", "structure": "Elevated", "ada": false, "lat": 40.662549, "lng": -73.908946}, {"station_id": "349", "complex_id": "349", "gtfs_stop_id": "254", "name": "Junius St", "lines": ["3"], "borough": "Bk", "division": "IRT", "structure": "Elevated", "ada": false, "lat": 40.663515, "lng": -73.902447}, {"station_id": "350", "complex_id": "350", "gtfs_stop_id": "255", "name": "Pennsylvania Av", "lines": ["3"], "borough": "Bk", "division": "IRT", "structure": "Elevated", "ada": false, "lat": 40.664635, "lng": -73.894895}, {"station_id": "351", "complex_id": "351", "gtfs_stop_id": "256", "name": "Van Siclen Av", "lines": ["3"], "borough": "Bk", "division": "IRT", "structure": "Elevated", "ada": false, "lat": 40.665449, "lng": -73.889395}, {"station_id": "352", "complex_id": "352", "gtfs_stop_id": "257", "name": "New Lots Av", "lines": ["3"], "borough": "Bk", "division": "IRT", "structure": "Elevated", "ada": false, "lat": 40.666235, "lng": -73.884079}, {"station_id": "353", "complex_id": "353", "gtfs_stop_id": "241", "name": "President St-Medgar Evers College", "lines": ["2", "5"], "borough": "Bk", "division": "IRT", "structure": "Subway", "ada": false, "lat": 40.667883, "lng": -73.950683}, {"station_id": "354", "complex_id": "354", "gtfs_stop_id": "242", "name": "Sterling St", "lines": ["2", "5"], "borough": "Bk", "division": "IRT", "structure": "Subway", "ada": false, "lat": 40.662742, "lng": -73.95085}, {"station_id": "355", "complex_id": "355", "gtfs_stop_id": "243", "name": "Winthrop St", "lines": ["2", "5"], "borough": "Bk", "division": "IRT", "structure": "Subway", "ada": false, "lat": 40.656652, "lng": -73.9502}, {"station_id": "356", "complex_id": "356", "gtfs_stop_id": "244", "name": "Church Av", "lines": ["2", "5"], "borough": "Bk", "division": "IRT", "structure": "Subway", "ada": true, "lat": 40.650843, "lng": -73.949575}, {"station_id": "357", "complex_id": "357", "gtfs_stop_id": "245", "name": "Beverly Rd", "lines": ["2", "5"], "borough": "Bk", "division": "IRT", "structure": "Subway", "ada": false, "lat": 40.645098, "lng": -73.948959}, {"station_id": "358", "complex_id": "358", "gtfs_stop_id": "246", "name": "Newkirk Av-Little Haiti", "lines": ["2", "5"], "borough": "Bk", "division": "IRT", "structure": "Subway", "ada": false, "lat": 40.639967, "lng": -73.948411}, {"station_id": "359", "complex_id": "359", "gtfs_stop_id": "247", "name": "Flatbush Av-Brooklyn College", "lines": ["2", "5"], "borough": "Bk", "division": "IRT", "structure": "Subway", "ada": true, "lat": 40.632836, "lng": -73.947642}, {"station_id": "360", "complex_id": "360", "gtfs_stop_id": "601", "name": "Pelham Bay Park", "lines": ["6"], "borough": "Bx", "division": "IRT", "structure": "Elevated", "ada": true, "lat": 40.852462, "lng": -73.828121}, {"station_id": "361", "complex_id": "361", "gtfs_stop_id": "602", "name": "Buhre Av", "lines": ["6"], "borough": "Bx", "division": "IRT", "structure": "Elevated", "ada": false, "lat": 40.84681, "lng": -73.832569}, {"station_id": "362", "complex_id": "362", "gtfs_stop_id": "603", "name": "Middletown Rd", "lines": ["6"], "borough": "Bx", "division": "IRT", "structure": "Elevated", "ada": false, "lat": 40.843863, "lng": -73.836322}, {"station_id": "363", "complex_id": "363", "gtfs_stop_id": "604", "name": "Westchester Sq-E Tremont Av", "lines": ["6"], "borough": "Bx", "division": "IRT", "structure": "Elevated", "ada": true, "lat": 40.839892, "lng": -73.842952}, {"station_id": "364", "complex_id": "364", "gtfs_stop_id": "606", "name": "Zerega Av", "lines": ["6"], "borough": "Bx", "division": "IRT", "structure": "Elevated", "ada": false, "lat": 40.836488, "lng": -73.847036}, {"station_id": "365", "complex_id": "365", "gtfs_stop_id": "607", "name": "Castle Hill Av", "lines": ["6"], "borough": "Bx", "division": "IRT", "structure": "Elevated", "ada": false, "lat": 40.834255, "lng": -73.851222}, {"station_id": "366", "complex_id": "366", "gtfs_stop_id": "608", "name": "Parkchester", "lines": ["6"], "borough": "Bx", "division": "IRT", "structure": "Elevated", "ada": true, "lat": 40.833226, "lng": -73.860816}, {"station_id": "367", "complex_id": "367", "gtfs_stop_id": "609", "name": "St Lawrence Av", "lines": ["6"], "borough": "Bx", "division": "IRT", "structure": "Elevated", "ada": false, "lat": 40.831509, "lng": -73.867618}, {"station_id": "368", "complex_id": "368", "gtfs_stop_id": "610", "name": "Morrison Av-Soundview", "lines": ["6"], "borough": "Bx", "division": "IRT", "structure": "Elevated", "ada": false, "lat": 40.829521, "lng": -73.874516}, {"station_id": "369", "complex_id": "369", "gtfs_stop_id": "611", "name": "Elder Av", "lines": ["6"], "borough": "Bx", "division": "IRT", "structure": "Elevated", "ada": false, "lat": 40.828584, "lng": -73.879159}, {"station_id": "370", "complex_id": "370", "gtfs_stop_id": "612", "name": "Whitlock Av", "lines": ["6"], "borough": "Bx", "division": "IRT", "structure": "Elevated", "ada": false, "lat": 40.826525, "lng": -73.886283}, {"station_id": "371", "complex_id": "371", "gtfs_stop_id": "613", "name": "Hunts Point Av", "lines": ["6"], "borough": "Bx", "division": "IRT", "structure": "Subway", "ada": true, "lat": 40.820948, "lng": -73.890549}, {"station_id": "372", "complex_id": "372", "gtfs_stop_id": "614", "name": "Longwood Av", "lines": ["6"], "borough": "Bx", "division": "IRT", "structure": "Subway", "ada": false, "lat": 40.816104, "lng": -73.896435}, {"station_id": "373", "complex_id": "373", "gtfs_stop_id": "615", "name": "E 149 St", "lines": ["6"], "borough": "Bx", "division": "IRT", "structure": "Subway", "ada": true, "lat": 40.812118, "lng": -73.904098}, {"station_id": "374", "complex_id": "374", "gtfs_stop_id": "616", "name": "E 143 St-St Mary's St", "lines": ["6"], "borough": "Bx", "division": "IRT", "structure": "Subway", "ada": false, "lat": 40.808719, "lng": -73.907657}, {"station_id": "375", "complex_id": "375", "gtfs_stop_id": "617", "name": "Cypress Av", "lines": ["6"], "borough": "Bx", "division": "IRT", "structure": "Subway", "ada": false, "lat": 40.805368, "lng": -73.914042}, {"station_id": "376", "complex_id": "376", "gtfs_stop_id": "618", "name": "Brook Av", "lines": ["6"], "borough": "Bx", "division": "IRT", "structure": "Subway", "ada": false, "lat": 40.807566, "lng": -73.91924}, {"station_id": "377", "complex_id": "377", "gtfs_stop_id": "619", "name": "3 Av-138 St", "lines": ["6"], "borough": "Bx", "division": "IRT", "structure": "Subway", "ada": false, "lat": 40.810476, "lng": -73.926138}, {"station_id": "378", "complex_id": "378", "gtfs_stop_id": "401", "name": "Woodlawn", "lines": ["4"], "borough": "Bx", "division": "IRT", "structure": "Elevated", "ada": false, "lat": 40.886037, "lng": -73.878751}, {"station_id": "379", "complex_id": "379", "gtfs_stop_id": "402", "name": "Mosholu Pkwy", "lines": ["4"], "borough": "Bx", "division": "IRT", "structure": "Elevated", "ada": true, "lat": 40.87975, "lng": -73.884655}, {"station_id": "380", "complex_id": "380", "gtfs_stop_id": "405", "name": "Bedford Park Blvd-Lehman College", "lines": ["4"], "borough": "Bx", "division": "IRT", "structure": "Elevated", "ada": false, "lat": 40.873412, "lng": -73.890064}, {"station_id": "381", "complex_id": "381", "gtfs_stop_id": "406", "name": "Kingsbridge Rd", "lines": ["4"], "borough": "Bx", "division": "IRT", "structure": "Elevated", "ada": false, "lat": 40.86776, "lng": -73.897174}, {"station_id": "382", "complex_id": "382", "gtfs_stop_id": "407", "name": "Fordham Rd", "lines": ["4"], "borough": "Bx", "division": "IRT", "structure": "Elevated", "ada": true, "lat": 40.862803, "lng": -73.901034}, {"station_id": "383", "complex_id": "383", "gtfs_stop_id": "408", "name": "183 St", "lines": ["4"], "borough": "Bx", "division": "IRT", "structure": "Elevated", "ada": false, "lat": 40.858407, "lng": -73.903879}, {"station_id": "384", "complex_id": "384", "gtfs_stop_id": "409", "name": "Burnside Av", "lines": ["4"], "borough": "Bx", "division": "IRT", "structure": "Elevated", "ada": false, "lat": 40.853453, "lng": -73.907684}, {"station_id": "385", "complex_id": "385", "gtfs_stop_id": "410", "name": "176 St", "lines": ["4"], "borough": "Bx", "division": "IRT", "structure": "Elevated", "ada": false, "lat": 40.84848, "lng": -73.911794}, {"station_id": "386", "complex_id": "386", "gtfs_stop_id": "411", "name": "Mt Eden Av", "lines": ["4"], "borough": "Bx", "division": "IRT", "structure": "Elevated", "ada": false, "lat": 40.844434, "lng": -73.914685}, {"station_id": "387", "complex_id": "387", "gtfs_stop_id": "412", "name": "170 St", "lines": ["4"], "borough": "Bx", "division": "IRT", "structure": "Elevated", "ada": true, "lat": 40.840075, "lng": -73.917791}, {"station_id": "388", "complex_id": "388", "gtfs_stop_id": "413", "name": "167 St", "lines": ["4"], "borough": "Bx", "division": "IRT", "structure": "Elevated", "ada": false, "lat": 40.835537, "lng": -73.9214}, {"station_id": "389", "complex_id": "604", "gtfs_stop_id": "414", "name": "161 St-Yankee Stadium", "lines": ["4"], "borough": "Bx", "division": "IRT", "structure": "Elevated", "ada": true, "lat": 40.827994, "lng": -73.925831}, {"station_id": "390", "complex_id": "603", "gtfs_stop_id": "415", "name": "149 St-Grand Concourse", "lines": ["4"], "borough": "Bx", "division": "IRT", "structure": "Subway", "ada": false, "lat": 40.818375, "lng": -73.927351}, {"station_id": "391", "complex_id": "391", "gtfs_stop_id": "416", "name": "138 St-Grand Concourse", "lines": ["4", "5"], "borough": "Bx", "division": "IRT", "structure": "Subway", "ada": false, "lat": 40.813224, "lng": -73.929849}, {"station_id": "392", "complex_id": "392", "gtfs_stop_id": "621", "name": "125 St", "lines": ["4", "5", "6"], "borough": "M", "division": "IRT", "structure": "Subway", "ada": true, "lat": 40.804138, "lng": -73.937594}, {"station_id": "393", "complex_id": "393", "gtfs_stop_id": "622", "name": "116 St", "lines": ["6"], "borough": "M", "division": "IRT", "structure": "Subway", "ada": false, "lat": 40.798629, "lng": -73.941617}, {"station_id": "394", "complex_id": "394", "gtfs_stop_id": "623", "name": "110 St", "lines": ["6"], "borough": "M", "division": "IRT", "structure": "Subway", "ada": false, "lat": 40.79502, "lng": -73.94425}, {"station_id": "395", "complex_id": "395", "gtfs_stop_id": "624", "name": "103 St", "lines": ["6"], "borough": "M", "division": "IRT", "structure": "Subway", "ada": false, "lat": 40.7906, "lng": -73.947478}, {"station_id": "396", "complex_id": "396", "gtfs_stop_id": "625", "name": "96 St", "lines": ["6"], "borough": "M", "division": "IRT", "structure": "Subway", "ada": false, "lat": 40.785672, "lng": -73.95107}, {"station_id": "397", "complex_id": "397", "gtfs_stop_id": "626", "name": "86 St", "lines": ["4", "5", "6"], "borough": "M", "division": "IRT", "structure": "Subway", "ada": false, "lat": 40.779492, "lng": -73.955589}, {"station_id": "398", "complex_id": "398", "gtfs_stop_id": "627", "name": "77 St", "lines": ["6"], "borough": "M", "division": "IRT", "structure": "Subway", "ada": false, "lat": 40.77362, "lng": -73.959874}, {"station_id": "399", "complex_id": "399", "gtfs_stop_id": "628", "name": "68 St-Hunter College", "lines": ["6"], "borough": "M", "division": "IRT", "structure": "Subway", "ada": true, "lat": 40.768141, "lng": -73.96387}, {"station_id": "400", "complex_id": "613", "gtfs_stop_id": "629", "name": "59 St", "lines": ["4", "5", "6"], "borough": "M", "division": "IRT", "structure": "Subway", "ada": false, "lat": 40.762526, "lng": -73.967967}, {"station_id": "401", "complex_id": "612", "gtfs_stop_id": "630", "name": "51 St", "lines": ["6"], "borough": "M", "division": "IRT", "structure": "Subway", "ada": true, "lat": 40.757107, "lng": -73.97192}, {"station_id": "402", "complex_id": "610", "gtfs_stop_id": "631", "name": "Grand Central-42 St", "lines": ["4", "5", "6"], "borough": "M", "division": "IRT", "structure": "Subway", "ada": true, "lat": 40.751776, "lng": -73.976848}, {"station_id": "403", "complex_id": "403", "gtfs_stop_id": "632", "name": "33 St", "lines": ["6"], "borough": "M", "division": "IRT", "structure": "Subway", "ada": false, "lat": 40.746081, "lng": -73.982076}, {"station_id": "404", "complex_id": "404", "gtfs_stop_id": "633", "name": "28 St", "lines": ["6"], "borough": "M", "division": "IRT", "structure": "Subway", "ada": false, "lat": 40.74307, "lng": -73.984264}, {"station_id": "405", "complex_id": "405", "gtfs_stop_id": "634", "name": "23 St-Baruch College", "lines": ["6"], "borough": "M", "division": "IRT", "structure": "Subway", "ada": true, "lat": 40.739864, "lng": -73.986599}, {"station_id": "406", "complex_id": "602", "gtfs_stop_id": "635", "name": "14 St-Union Sq", "lines": ["4", "5", "6"], "borough": "M", "division": "IRT", "structure": "Subway", "ada": false, "lat": 40.734673, "lng": -73.989951}, {"station_id": "407", "complex_id": "407", "gtfs_stop_id": "636", "name": "Astor Pl", "lines": ["6"], "borough": "M", "division": "IRT", "structure": "Subway", "ada": false, "lat": 40.730054, "lng": -73.99107}, {"station_id": "408", "complex_id": "619", "gtfs_stop_id": "637", "name": "Bleecker St", "lines": ["6"], "borough": "M", "division": "IRT", "structure": "Subway", "ada": true, "lat": 40.725915, "lng": -73.994659}, {"station_id": "409", "complex_id": "409", "gtfs_stop_id": "638", "name": "Spring St", "lines": ["6"], "borough": "M", "division": "IRT", "structure": "Subway", "ada": false, "lat": 40.722301, "lng": -73.997141}, {"station_id": "410", "complex_id": "623", "gtfs_stop_id": "639", "name": "Canal St", "lines": ["6"], "borough": "M", "division": "IRT", "structure": "Subway", "ada": true, "lat": 40.718803, "lng": -74.000193}, {"station_id": "411", "complex_id": "622", "gtfs_stop_id": "640", "name": "Brooklyn Bridge-City Hall", "lines": ["4", "5", "6"], "borough": "M", "division": "IRT", "structure": "Subway", "ada": true, "lat": 40.713065, "lng": -74.004131}, {"station_id": "412", "complex_id": "628", "gtfs_stop_id": "418", "name": "Fulton St", "lines": ["4", "5"], "borough": "M", "division": "IRT", "structure": "Subway", "ada": true, "lat": 40.710368, "lng": -74.009509}, {"station_id": "413", "complex_id": "413", "gtfs_stop_id": "419", "name": "Wall St", "lines": ["4", "5"], "borough": "M", "division": "IRT", "structure": "Subway", "ada": false, "lat": 40.707557, "lng": -74.011862}, {"station_id": "414", "complex_id": "414", "gtfs_stop_id": "420", "name": "Bowling Green", "lines": ["4", "5"], "borough": "M", "division": "IRT", "structure": "Subway", "ada": true, "lat": 40.704817, "lng": -74.014065}, {"station_id": "415", "complex_id": "620", "gtfs_stop_id": "423", "name": "Borough Hall", "lines": ["4", "5"], "borough": "Bk", "division": "IRT", "structure": "Subway", "ada": true, "lat": 40.692404, "lng": -73.990151}, {"station_id": "416", "complex_id": "416", "gtfs_stop_id": "201", "name": "Wakefield-241 St", "lines": ["2"], "borough": "Bx", "division": "IRT", "structure": "Elevated", "ada": false, "lat": 40.903125, "lng": -73.85062}, {"station_id": "417", "complex_id": "417", "gtfs_stop_id": "204", "name": "Nereid Av", "lines": ["2", "5"], "borough": "Bx", "division": "IRT", "structure": "Elevated", "ada": false, "lat": 40.898379, "lng": -73.854376}, {"station_id": "418", "complex_id": "418", "gtfs_stop_id": "205", "name": "233 St", "lines": ["2", "5"], "borough": "Bx", "division": "IRT", "structure": "Elevated", "ada": true, "lat": 40.893193, "lng": -73.857473}, {"station_id": "419", "complex_id": "419", "gtfs_stop_id": "206", "name": "225 St", "lines": ["2", "5"], "borough": "Bx", "division": "IRT", "structure": "Elevated", "ada": false, "lat": 40.888022, "lng": -73.860341}, {"station_id": "420", "complex_id": "420", "gtfs_stop_id": "207", "name": "219 St", "lines": ["2", "5"], "borough": "Bx", "division": "IRT", "structure": "Elevated", "ada": false, "lat": 40.883895, "lng": -73.862633}, {"station_id": "421", "complex_id": "421", "gtfs_stop_id": "208", "name": "Gun Hill Rd", "lines": ["2", "5"], "borough": "Bx", "division": "IRT", "structure": "Elevated", "ada": true, "lat": 40.87785, "lng": -73.866256}, {"station_id": "422", "complex_id": "422", "gtfs_stop_id": "209", "name": "Burke Av", "lines": ["2", "5"], "borough": "Bx", "division": "IRT", "structure": "Elevated", "ada": false, "lat": 40.871356, "lng": -73.867164}, {"station_id": "423", "complex_id": "423", "gtfs_stop_id": "210", "name": "Allerton Av", "lines": ["2", "5"], "borough": "Bx", "division": "IRT", "structure": "Elevated", "ada": false, "lat": 40.865462, "lng": -73.867352}, {"station_id": "424", "complex_id": "424", "gtfs_stop_id": "211", "name": "Pelham Pkwy", "lines": ["2", "5"], "borough": "Bx", "division": "IRT", "structure": "Elevated", "ada": true, "lat": 40.857192, "lng": -73.867615}, {"station_id": "425", "complex_id": "425", "gtfs_stop_id": "212", "name": "Bronx Park East", "lines": ["2", "5"], "borough": "Bx", "division": "IRT", "structure": "Elevated", "ada": false, "lat": 40.848828, "lng": -73.868457}, {"station_id": "426", "complex_id": "426", "gtfs_stop_id": "213", "name": "E 180 St", "lines": ["2", "5"], "borough": "Bx", "division": "IRT", "structure": "Elevated", "ada": true, "lat": 40.841894, "lng": -73.873488}, {"station_id": "427", "complex_id": "427", "gtfs_stop_id": "214", "name": "West Farms Sq-E Tremont Av", "lines": ["2", "5"], "borough": "Bx", "division": "IRT", "structure": "Elevated", "ada": false, "lat": 40.840295, "lng": -73.880049}, {"station_id": "428", "complex_id": "428", "gtfs_stop_id": "215", "name": "174 St", "lines": ["2", "5"], "borough": "Bx", "division": "IRT", "structure": "Elevated", "ada": false, "lat": 40.837288, "lng": -73.887734}, {"station_id": "429", "complex_id": "429", "gtfs_stop_id": "216", "name": "Freeman St", "lines": ["2", "5"], "borough": "Bx", "division": "IRT", "structure": "Elevated", "ada": false, "lat": 40.829993, "lng": -73.891865}, {"station_id": "430", "complex_id": "430", "gtfs_stop_id": "217", "name": "Simpson St", "lines": ["2", "5"], "borough": "Bx", "division": "IRT", "structure": "Elevated", "ada": true, "lat": 40.824073, "lng": -73.893064}, {"station_id": "431", "complex_id": "431", "gtfs_stop_id": "218", "name": "Intervale Av", "lines": ["2", "5"], "borough": "Bx", "division": "IRT", "structure": "Elevated", "ada": false, "lat": 40.822181, "lng": -73.896736}, {"station_id": "432", "complex_id": "432", "gtfs_stop_id": "219", "name": "Prospect Av", "lines": ["2", "5"], "borough": "Bx", "division": "IRT", "structure": "Elevated", "ada": false, "lat": 40.819585, "lng": -73.90177}, {"station_id": "433", "complex_id": "433", "gtfs_stop_id": "220", "name": "Jackson Av", "lines": ["2", "5"], "borough": "Bx", "division": "IRT", "structure": "Elevated", "ada": false, "lat": 40.81649, "lng": -73.907807}, {"station_id": "434", "complex_id": "434", "gtfs_stop_id": "221", "name": "3 Av-149 St", "lines": ["2", "5"], "borough": "Bx", "division": "IRT", "structure": "Subway", "ada": true, "lat": 40.816109, "lng": -73.917757}, {"station_id": "435", "complex_id": "603", "gtfs_stop_id": "222", "name": "149 St-Grand Concourse", "lines": ["2", "5"], "borough": "Bx", "division": "IRT", "structure": "Subway", "ada": false, "lat": 40.81841, "lng": -73.926718}, {"station_id": "436", "complex_id": "436", "gtfs_stop_id": "301", "name": "Harlem-148 St", "lines": ["3"], "borough": "M", "division": "IRT", "structure": "Subway", "ada": false, "lat": 40.82388, "lng": -73.93647}, {"station_id": "437", "complex_id": "437", "gtfs_stop_id": "302", "name": "145 St", "lines": ["3"], "borough": "M", "division": "IRT", "structure": "Subway", "ada": false, "lat": 40.820421, "lng": -73.936245}, {"station_id": "438", "complex_id": "438", "gtfs_stop_id": "224", "name": "135 St", "lines": ["2", "3"], "borough": "M", "division": "IRT", "structure": "Subway", "ada": true, "lat": 40.814229, "lng": -73.94077}, {"station_id": "439", "complex_id": "439", "gtfs_stop_id": "225", "name": "125 St", "lines": ["2", "3"], "borough": "M", "division": "IRT", "structure": "Subway", "ada": false, "lat": 40.807754, "lng": -73.945495}, {"station_id": "440", "complex_id": "440", "gtfs_stop_id": "226", "name": "116 St", "lines": ["2", "3"], "borough": "M", "division": "IRT", "structure": "Subway", "ada": false, "lat": 40.802098, "lng": -73.949625}, {"station_id": "441", "complex_id": "441", "gtfs_stop_id": "227", "name": "110 St-Malcolm X Plaza", "lines": ["2", "3"], "borough": "M", "division": "IRT", "structure": "Subway", "ada": false, "lat": 40.799075, "lng": -73.951822}, {"station_id": "442", "complex_id": "442", "gtfs_stop_id": "501", "name": "Eastchester-Dyre Av", "lines": ["5"], "borough": "Bx", "division": "IRT", "structure": "At Grade", "ada": false, "lat": 40.8883, "lng": -73.830834}, {"station_id": "443", "complex_id": "443", "gtfs_stop_id": "502", "name": "Baychester Av", "lines": ["5"], "borough": "Bx", "division": "IRT", "structure": "Open Cut", "ada": false, "lat": 40.878663, "lng": -73.838591}, {"station_id": "444", "complex_id": "444", "gtfs_stop_id": "503", "name": "Gun Hill Rd", "lines": ["5"], "borough": "Bx", "division": "IRT", "structure": "Open Cut", "ada": true, "lat": 40.869526, "lng": -73.846384}, {"station_id": "445", "complex_id": "445", "gtfs_stop_id": "504", "name": "Pelham Pkwy", "lines": ["5"], "borough": "Bx", "division": "IRT", "structure": "Open Cut", "ada": false, "lat": 40.858985, "lng": -73.855359}, {"station_id": "446", "complex_id": "446", "gtfs_stop_id": "505", "name": "Morris Park", "lines": ["5"], "borough": "Bx", "division": "IRT", "structure": "Open Cut", "ada": false, "lat": 40.854364, "lng": -73.860495}, {"station_id": "447", "complex_id": "447", "gtfs_stop_id": "701", "name": "Flushing-Main St", "lines": ["7"], "borough": "Q", "division": "IRT", "structure": "Subway", "ada": true, "lat": 40.7596, "lng": -73.83003}, {"station_id": "448", "complex_id": "448", "gtfs_stop_id": "702", "name": "Mets-Willets Point", "lines": ["7"], "borough": "Q", "division": "IRT", "structure": "Elevated", "ada": false, "lat": 40.754622, "lng": -73.845625}, {"station_id": "449", "complex_id": "449", "gtfs_stop_id": "705", "name": "111 St", "lines": ["7"], "borough": "Q", "division": "IRT", "structure": "Elevated", "ada": false, "lat": 40.75173, "lng": -73.855334}, {"station_id": "450", "complex_id": "450", "gtfs_stop_id": "706", "name": "103 St-Corona Plaza", "lines": ["7"], "borough": "Q", "division": "IRT", "structure": "Elevated", "ada": false, "lat": 40.749865, "lng": -73.8627}, {"station_id": "451", "complex_id": "451", "gtfs_stop_id": "707", "name": "Junction Blvd", "lines": ["7"], "borough": "Q", "division": "IRT", "structure": "Elevated", "ada": true, "lat": 40.749145, "lng": -73.869527}, {"station_id": "452", "complex_id": "452", "gtfs_stop_id": "708", "name": "90 St-Elmhurst Av", "lines": ["7"], "borough": "Q", "division": "IRT", "structure": "Elevated", "ada": false, "lat": 40.748408, "lng": -73.876613}, {"station_id": "453", "complex_id": "453", "gtfs_stop_id": "709", "name": "82 St-Jackson Hts", "lines": ["7"], "borough": "Q", "division": "IRT", "structure": "Elevated", "ada": false, "lat": 40.747659, "lng": -73.883697}, {"station_id": "454", "complex_id": "616", "gtfs_stop_id": "710", "name": "74 St-Broadway", "lines": ["7"], "borough": "Q", "division": "IRT", "structure": "Elevated", "ada": true, "lat": 40.746848, "lng": -73.891394}, {"station_id": "455", "complex_id": "455", "gtfs_stop_id": "711", "name": "69 St", "lines": ["7"], "borough": "Q", "division": "IRT", "structure": "Elevated", "ada": false, "lat": 40.746325, "lng": -73.896403},